,yelpid,name,lat,lng,distance miles,price rating,price value,review count,review rating,type,address1,city,state,zip
0,RtUvSWO_UZ8V3Wpj0n077w,KINKA IZAKAYA ORIGINAL,43.6604,-79.37896,1386.2115558199775,$$,2,1488,4.0,Japanese,398 Church St,Toronto,ON,M5B 2A2
1,qR4EIktJfQKc4rnKgBzvtw,Gyubee Japanese Grill - Bloor,43.66716,-79.40047,585.8329754917949,$$,2,149,4.0,Barbeque,335 Bloor Street W,Toronto,ON,M5S 1W7
2,r_BrIgzYcwo1NAuG9dLbpg,Pai Northern Thai Kitchen,43.647866,-79.3886415,1805.2989374965152,$$,2,2344,4.5,Thai,18 Duncan Street,Toronto,ON,M5H 3G8
3,eKznX8VTfcQrjCqXpeobiw,Rasa,43.6627752,-79.4039682,667.0800791768606,$$,2,226,4.5,Canadian (New),196 Robert Street,Toronto,ON,M5S 2K8
4,ro82qYK_AETB8wNGA5Xdzw,Kōjin,43.64947,-79.38633,1710.2483469382635,NO $,0,64,4.0,Canadian (New),190 University Ave,Toronto,ON,M5H 0A3
5,iGEvDk6hsizigmXhDKs2Vg,Seven Lives Tacos Y Mariscos,43.6543411559068,-79.4004796072841,1065.227469347267,$,1,1211,4.5,Mexican,69 Kensington Avenue,Toronto,ON,M5T 2K2
6,mZRKH9ngRY92bI_irrHq6w,Richmond Station,43.6513729,-79.379285,1869.9369229008607,$$$,3,676,4.5,Canadian (New),1 Richmond Street W,Toronto,ON,M5H 3W4
7,saijdv-vXJrvsCfvr7SZOw,Katsuya,43.65995,-79.37882,1406.2377511399195,$$,2,312,4.5,Japanese,66 Gerrard Street E,Toronto,ON,M5B 2M2
8,FqviVFdQac_dVwVMrNtGBA,The Innis Cafe,43.66556,-79.3995599,404.3518213012837,$,1,19,4.0,Cafes,2 Sussex Avenue,Toronto,ON,M5S 1J5
9,1HqUJ8TvBMWKfqHYWTyFNw,Myato Gastropub,43.66518,-79.41015,1184.6078937237935,NO $,0,55,4.0,Korean,549 Bloor Street W,Toronto,ON,M5S 1Y6
10,oHgCHC8a3QNJiB4-Ld0_kg,Daddyo's Pasta & Salads,43.6645899,-79.40234,557.1595728084726,$$,2,88,4.0,Italian,673 Spadina Avenue,Toronto,ON,M5S 2H9
11,HUYEadSbGSQNHXFmT2Ujjw,Manpuku Japanese Eatery,43.65406,-79.39101,1136.9992391422916,$,1,419,4.0,Japanese,105 McCaul Street,Toronto,ON,M5T 2X4
12,G24p1oGGfY3t-m8Z2lPCaQ,Tinuno,43.6711430082347,-79.374853497263,1891.5250482225165,$$,2,412,4.0,Filipino,31 Howard Street,Toronto,ON,M4X 1J6
13,kYD9E14AijONhJ7rFsyLrg,The Elm Tree Restaurant,43.6572873032448,-79.3836965529587,1173.2577558587138,$$,2,234,4.5,Mediterranean,43 Elm Street,Toronto,ON,M5G 1H1
14,PiLfiQYyDNgBaAvSL58cqg,Okonomi House Restaurant,43.668311069021,-79.387133746804,888.0644042806356,$,1,244,4.0,Japanese,23 Charles Street W,Toronto,ON,M4Y 2R4
15,QTIG9Dm1IpYuwCLOcFyDCw,BauZza BauZza,43.65798,-79.40163,758.5590716088586,NO $,0,15,4.0,Soup,298 College St,Toronto,ON,M5T 1R9
16,3FVpx9ksZLgOrYy1I05Ypg,The Annex Food Hall,43.6662561448828,-79.4065094072386,930.1530246199677,NO $,0,16,4.0,Food Court,384 Bloor Street W,Toronto,ON,M5S 1X2
17,Yl2TN9c23ZGLUBSD9ks5Uw,Byblos,43.647546,-79.388123,1852.4198459896202,$$$,3,737,4.5,Mediterranean,11 Duncan Street,Toronto,ON,M5V 3M2
18,e41TP5cXZqSrz50xCBJqZw,Insomnia Restaurant & Lounge,43.6651314099312,-79.4108515895492,1235.759919533344,$$,2,846,4.0,Lounges,563 Bloor Street W,Toronto,ON,M5S 1Y6
19,B70iTJjcPkuYn8ouUewWgw,Gusto 101,43.645002131066,-79.400309337027,2065.4962250479975,$$,2,873,4.0,Italian,101 Portland Street,Toronto,ON,M5V 2N3
20,eD-XLSo-j8uIoTnIlrG8YA,Juicy Dumpling,43.6527250786074,-79.3986365944147,1196.7260603848508,$,1,208,4.0,Dim Sum,280 Spadina Ave,Toronto,ON,M5T 0A1
21,aEZ_EoArhpjV2p0q5MXFMA,Onnki Donburi,43.66996,-79.38455,1150.0826125123447,$$,2,123,4.0,Japanese,40 Hayden Street,Toronto,ON,M4Y 1V8
22,q9_gLvTNf11etVxbH7JY0Q,Yasu,43.6627268440129,-79.4032790460321,612.3693511143559,$$$$,4,322,4.5,Japanese,81 Harbord Street,Toronto,ON,M5S
23,n_-CwlqV8fzEIUPky8Ibtw,The Oxley,43.6707168,-79.393126,852.9349976816433,$$,2,131,4.0,Gastropubs,121 Yorkville Avenue,Toronto,ON,M5R 1C4
24,crstB-H5rOfbXhV8pX0e6g,Ramen Isshin,43.65634,-79.40689,1184.6459943252485,$$,2,540,4.5,Ramen,421 College Street,Toronto,ON,M5T 1T1
25,BWCfyBdnTvuXp6A_8wt8cA,Ikkousha Ramen,43.65024,-79.38873,1554.8197633101,NO $,0,21,4.5,Ramen,249 Queen Street W,Toronto,ON,M5V 1Z4
26,BkvUOO79b7wdTjWGYo1pqg,Gallery Grill,43.6636499,-79.3944999,146.3056670107739,$$$,3,20,4.0,Canadian (New),7 Hart House Circle,Toronto,ON,M5S 3H3
27,JG9UpsFR6hrqQqsKh_RyaQ,Planta Yorkville,43.6702150961667,-79.3894335574237,921.7896874121972,$$$,3,364,4.0,Tapas/Small Plates,1221 Bay Street,Toronto,ON,M5R 3P5
28,9yrAfE46k-_kqg4ULHu8Vw,Little Piggy's,43.6659,-79.406785,937.8380131381787,$$,2,149,3.5,Korean,469 Bloor Street West,Toronto,ON,M5S 1X9
29,47wBHgBwQ8_70sjmXow_1g,Her Father's Cider Bar & Kitchen,43.66232,-79.40453,721.0007457469585,$$,2,132,4.5,Gastropubs,119 Harbord Street,Toronto,ON,M5S 1G7
30,W5lXGA4FeXf6SPUsSfRKgg,CRU,43.64977,-79.37847,2041.635366406572,NO $,0,6,4.5,Canadian (New),100 Yonge Street,Toronto,ON,M5C 2W1
31,4twpbw7n4DmsLxAm6-sMkg,Seor Ak San,43.65557,-79.3986,885.2106576550707,$,1,274,4.0,Korean,357 Spadina Avenue,Toronto,ON,M5T 2G3
32,f5O7v_X_jCg2itqacRfxhg,Sansotei Ramen,43.655,-79.38643,1182.2040770646724,$$,2,814,4.0,Ramen,179 Dundas Street W,Toronto,ON,M5G 1Z8
33,Nq0UHjD_cKW9UbIJplQf_g,Pow Wow Cafe,43.65412,-79.40151,1116.4994074213048,$$,2,100,4.5,Canadian (New),213 Augusta Avenue,Toronto,ON,M5T 2L4
34,XYIPXJ9parr9FtvvcGI1SA,GB Hand-pulled Noodles,43.65669,-79.38385,1206.0378780457581,$$,2,461,4.0,Chinese,66 Edward Street,Toronto,ON,M5G 1C9
35,hnLvniU73W9Ni72Aym3A3g,Figs and Olives Kitchen,43.66484,-79.38607,805.3345025268113,NO $,0,24,4.5,Mediterranean,24 Wellesley Street W,Toronto,ON,M4Y 2X6
36,m3U4Pey_Yr0jgJb8MHfy5g,Rasta Pasta,43.6542328627147,-79.4004420356637,1075.3927857670672,$,1,285,4.0,Caribbean,61 Kensington Avenue,Toronto,ON,M5T
37,CN5nuUQod0f8g3oh99qq0w,KINKA IZAKAYA BLOOR,43.665157,-79.410658,1220.89307899638,$$,2,436,4.0,Japanese,559 Bloor St W,Toronto,ON,M5S 1Y6
38,5UgSHCX-V0iXagxUZ9LEXg,Her Chef,43.66457,-79.41292,1393.7846021115392,NO $,0,5,4.5,Asian Fusion,599 Bloor Street W,Toronto,ON,M6G 1K5
39,nrq5H3LZicjMG0wv7gy08g,Kintaro Izakaya,43.66417,-79.38006,1258.65556924875,$$,2,153,4.0,Japanese,459 Church Street,Toronto,ON,M4Y 4C5
40,7BoXrkEw-b98Wi1EaSH3HA,Tasty's Caribbean Restaurant,43.6567777,-79.3992574,777.0912216740285,$,1,62,4.5,Caribbean,405 Spadina Avenue,Toronto,ON,M5T 2G6
41,2cKAew-9iLS-mo-TtOgFiA,Raku,43.64831,-79.39944,1700.337048965614,NO $,0,8,5.0,Japanese,456 Queen St W,Toronto,ON,M5V 2A8
42,TqMTY6xTHThm0C7J1pJ7Aw,Pig Out BBQ,43.66317,-79.40253,552.1419565745794,$$,2,81,4.0,Barbeque,650 Spadina Avenue,Toronto,ON,M5S 2H7
43,I48hKUHApL2ae5yvq7w1eQ,Zaad,43.66672,-79.40455,811.518008034306,NO $,0,10,4.5,Middle Eastern,348 Bloor Street W,Toronto,ON,M5S 1W9
44,iAxsnFs3qq0Qx1EJ1S9SoQ,Koyoi Restaurant & Bar,43.6666786252858,-79.3854676187038,906.1575723598969,$$,2,125,4.0,Japanese,2 Irwin Avenue,Toronto,ON,M4Y 1K9
45,bzMO8LJmJtgo3KuyWGKUxA,Homemade Ramen,43.65241,-79.39739,1218.1207423750384,$,1,218,4.0,Chinese,263 Spadina Avenue,Toronto,ON,M5T 2E3
46,K_IfsWS_GfypdEvqeOMmeA,Papi Chulo's Mexicana,43.6467773358608,-79.4196403026581,2659.6914439409898,NO $,0,3,4.5,Mexican,121 Ossington Avenue,Toronto,ON,M6J 2Z2
47,Dkx_UjNhbXB-P0oyKqbTPA,Clubhouse Sandwich Shop,43.6582889,-79.3998991,649.1727401346278,$,1,95,4.0,Sandwiches,455 Spadina Avenue,Toronto,ON,M5S 2G7
48,siaRCT2-PkyeXUVKrywcTg,Niuda Hand-Pulled Noodles,43.65061,-79.38908,1513.795252549744,NO $,0,47,4.0,Chinese,204 Queen St W,Toronto,ON,M5V 1Z2
49,mzREMIknfmagJugibXrCsQ,Pho Tien Thanh,43.6455399,-79.41896,2720.3150360157524,$,1,368,4.0,Vietnamese,57 Ossington Avenue,Toronto,ON,M6J 2Y9
50,ABRgXNwdOX_JyqChNr8IYw,Swatow Restaurant,43.65385,-79.39796,1067.395453165813,$$,2,333,4.0,Chinese,309 Spadina Avenue,Toronto,ON,M5T 2E6
51,1CgVIMgnvGKdVkkAXQlsWg,Awastea,43.6538193680653,-79.3979744240642,1067.3071851107004,NO $,0,16,4.0,Tea Rooms,307 Spadina Avenue,Toronto,ON,M5T 2E6
52,_BAewGvIIzrNJtCzViIvSQ,Omai Restaurant,43.6561,-79.39234,839.8292964265862,$$,2,61,4.0,Japanese,3 Baldwin Street,Toronto,ON,M5T 1L1
53,aLcFhMe6DDJ430zelCpd2A,Khao San Road,43.64634,-79.39359,1883.8894359005756,$$,2,1471,4.0,Thai,11 Charlotte Street,Toronto,ON,M5V 2H5
54,k3fn9JFiNLNy2q5p0cE1kg,Carisma,43.65032,-79.37596,2148.202800116754,$$$,3,152,4.0,Italian,15 Toronto Street,Toronto,ON,M5C 2EC
55,qKUbPdzNQpdSP2mhk3tREg,Moo Frites,43.6548210057109,-79.4007505178083,1024.0846177869553,$,1,197,4.0,Belgian,178 Baldwin Street,Toronto,ON,M5T 1L8
56,uYko1SzZ9XpTXS-F5xnAdA,817 Sports Bar & Grill,43.64595,-79.4091,2202.601382739058,NO $,0,1,5.0,Sports Bars,817 Queen Street W,Toronto,ON,M6J 1G1
57,HczMx_z0HS_PnpdTHc3qzQ,Egg Bae,43.653418218123,-79.4014396490667,1189.31657462427,$,1,117,4.0,Breakfast & Brunch,189 Augusta Avenue,Toronto,ON,M5T 2L4
58,nIskoP3-_MttghA3d-eYBA,La Chilaca Taqueria,43.654581,-79.4024681,1109.466664544268,$,1,44,4.5,Mexican,214 Augusta Avenue,Toronto,ON,M5T 2L6
59,ZumOnWbstgsIE6bJlxw0_Q,Jacobs & Co. Steakhouse,43.64539876116,-79.3980279011192,1996.6650919607619,$$$$,4,507,4.5,Steakhouses,12 Brant Street,Toronto,ON,M5V 1K4
60,b7wUWVV01xaa7E0FUNMDiw,DaiLo,43.65574,-79.4098,1407.5169752195739,$$$,3,234,4.0,Chinese,503 College Street,Toronto,ON,M6G 1A5
61,O-uIEuv7JLUHajkemx_sVw,Beerbistro,43.649817,-79.377147,2113.906262228023,$$,2,611,4.0,Bistros,18 King Street E,Toronto,ON,M5C 1C4
62,QaxDKkqYTtVYZJcqBNTnvQ,Yummy Yummy Dumplings,43.6537999,-79.39598,1052.8808736503534,$,1,220,4.0,Chinese,79 Huron Street,Toronto,ON,M5T 2A8
63,DE89UdHFMCN6DtYWZuer5A,Hokkaido Ramen Santouka,43.656321731393,-79.377499580039,1656.0979737190241,$$,2,777,4.0,Ramen,91 Dundas Street E,Toronto,ON,M5B 2C8
64,h8vVxwP6FnlkRDONKBHT-w,Chubby's Jamaican Kitchen,43.64532,-79.40066,2035.301199138133,$$,2,150,4.0,Caribbean,104 Portland Street,Toronto,ON,M5V 2N2
65,5dy8OiWJty9AuxBcBzeBZQ,Piano Piano,43.66311,-79.40292,585.180564856162,$$$,3,200,3.5,Italian,88 Harbord Street,Toronto,ON,M5S 1G5
66,bcocXdKPSXC0LiRGlBM7mg,Tsujiri Patisserie,43.66549,-79.38501,891.5163131152775,NO $,0,6,4.5,Desserts,596 Yonge St,Toronto,ON,M4Y 1Z3
67,mES9E5K4HbYoPFXGv0pUuw,Como En Casa,43.6653391464388,-79.3844996650524,930.0057804723341,$,1,206,4.0,Mexican,565 Yonge Street,Toronto,ON,M4Y 1Z2
68,v_UM-AW9YYTCbWUNa-w1Gg,Epicure City BOM,43.65854,-79.3852,997.8781513173598,$$,2,143,4.0,Korean,72 Gerrard Street W,Toronto,ON,M5G 1J5
69,N93EYZy9R0sdlEvubu94ig,Banh Mi Boys,43.64884,-79.39695,1609.9163111674115,$,1,1065,4.5,Sandwiches,392 Queen Street W,Toronto,ON,M5V 2A9
70,EEIz44ewHhOKmfTloAK13g,Alo Restaurant,43.64851,-79.39584,1638.8124336988951,$$$$,4,250,4.5,Bars,163 Spadina Avenue,Toronto,ON,M5V 2A5
71,fNc1WuGwiT7RhqXUIe4S8A,Sabai Sabai Kitchen and Bar,43.6704534404129,-79.3847215948792,1190.4895074122849,$$,2,302,4.0,Laotian,81 Bloor Street E,Toronto,ON,M4W 1A9
72,K3V9JWBZgIMtSICc4kBRUA,Naan & Kabob,43.66905,-79.38606,1005.0284690773157,$$,2,76,4.0,Afghan,691 Yonge Street,Toronto,ON,M4Y 2B2
73,PlYrlj86zAYljZTRCBSZ3A,Nom Nom Nom Poutine,43.6520696112633,-79.4047858938575,1444.5074609775752,$,1,86,4.5,Poutineries,707 Dundas Street W,Toronto,ON,M5T 2W6
74,3UsFBwW-gWCIrAV3e8VEEw,Clay Restaurant,43.66798,-79.3934699,576.3640282513278,NO $,0,2,4.0,Canadian (New),111 Queens Park,Toronto,ON,M5S 2C7
75,zA6gnF5aPBGoOm6uIbKt-A,Yuzu No Hana,43.64847,-79.38834,1749.724090370045,$$$,3,512,4.0,Sushi Bars,236 Adelaide Street W,Toronto,ON,M5H 1W7
76,ttuEwktrkmh3TUlSFPZqAA,Banh Mi Boys,43.6590974,-79.3820781,1190.5470241492665,$,1,457,4.0,Vietnamese,399 Yonge Street,Toronto,ON,M5B
77,QKfPHb4bFXJY_M75RcgTew,Eighteen30,43.64484,-79.39376,2066.403656019764,NO $,0,5,4.0,Tapas Bars,9 Clarence Square,Toronto,ON,M5V 1H1
78,FML0YqZ7dLBBC3Suap4_4Q,416 Snack Bar,43.64755,-79.40385,1868.959296449395,$$,2,305,4.0,Tapas/Small Plates,181 Bathurst Street,Toronto,ON,M5T 2R7
79,TmSMf-0j4gvVc9sp-7CiMg,Shi Miaodao Yunnan Rice Noodle,43.6536,-79.39869,1100.4907370569554,NO $,0,27,4.0,Noodles,318 Spadina Avenue,Toronto,ON,M5T 2E7
80,_crbEZ55ve6OFkoWa09R9A,The Wickson Social,43.6659578,-79.3854723,875.3790774816285,$$,2,106,4.0,Cocktail Bars,5 St Joseph Street,Toronto,ON,M4Y 1Z3
81,OJ6zfenoK-eBNI7vvNrOsg,Fieramosca,43.66963,-79.39719,710.437970624449,$$$,3,87,4.5,Italian,36A Prince Arthur Avenue,Toronto,ON,M5R 1A9
82,NroCi19AbudaB6vxHJO0UA,Dakgogi,43.66489,-79.38314,1027.6922632596804,NO $,0,7,3.0,Korean,25 wellesley street east,Toronto,ON,M4Y 2S9
83,sCPNcNxYuTnTdlAZohMyQg,Museum Tavern,43.6686897,-79.3958511,583.5866110411218,$$,2,206,3.5,American (Traditional),208 Bloor Street W,Toronto,ON,M5S 1W2
84,FBd6q_qzEFixvhV3KdzvJw,Riddle Room,43.6657555,-79.3847049,926.7155155254942,$,1,159,4.5,Cafes,579 Yonge Street,Toronto,ON,M4Y 1Z2
85,Ibp4hEKSE8JaX9OvfEiFqg,Otto's Berlin Döner,43.6563397,-79.4029066,964.686379818878,$$,2,226,4.0,German,256 Augusta Avenue,Toronto,ON,M5T 2L9
86,-BbnAc9YEO6pjvJGEtFbVQ,Sansotei,43.6668190173642,-79.3854692490327,912.6660880851323,$$,2,254,4.0,Ramen,650 Yonge Street,Toronto,ON,M4Y 2A6
87,RyDiwx4xD3Lx8sWHx1aFlQ,Smoque N' Bones,43.6457027819391,-79.4107432752393,2298.3333940726616,$$,2,360,4.0,Barbeque,869 Queen Street W,Toronto,ON,M6J 1G4
88,x4q_kJ-dvaHL7dkpZKJUdg,Bob's Bulgogi,43.652139,-79.377507,1917.476077942647,$,1,73,4.0,Korean,105 Victoria Street,Toronto,ON,M5C 3B4
89,TpwCjlKsdYjLsvlYhKGt4g,Almond Butterfly Cafe & Bakeshop,43.6629326,-79.4033968,619.9638196652643,$,1,135,4.5,Bakeries,100 Harbord Street,Toronto,ON,M5S 1G6
90,c78Pat78fVUBFPXYeVvbaQ,Odd Seoul,43.64619,-79.419686,2707.7784011881577,$$,2,277,4.0,Korean,90 Ossington Avenue,Toronto,ON,M6J 2Y7
91,41o1FUbCYKJv2djtnlkzlg,Bar Raval,43.6558432,-79.4099433,1412.5167206690373,$$$,3,241,4.0,Spanish,505 College Street,Toronto,ON,M6G 2J3
92,NECnXyZ8SCjQICOBhG7wTg,The Original Gyro Grill,43.6665811534236,-79.4058116737637,892.2034020526548,$,1,115,4.0,Fast Food,4 Walmer Road,Toronto,ON,M5S 1X2
93,yhUzMGe0zXJhdXa5eRyY-g,The Manna,43.6638499,-79.41828,1809.2049856856108,$,1,19,4.5,Korean,726 Bloor Street,Toronto,ON,M6G 1L4
94,VRwT0pscR5vESCrAnUpNwQ,Wilbur Mexicana,43.64494,-79.39866,2060.941715297448,$$,2,490,4.0,Mexican,552 King Street W,Toronto,ON,M5V 1M3
95,u3YZWL5IF1SOVSZ0f0-2mw,Greedy Duck,43.65775,-79.40239,820.48321405525,NO $,0,3,4.5,Chinese,316 College Street,Toronto,ON,M5T 1S3
96,q5xrVJ4kivx_yEfJeOKNYQ,Bar Isabel,43.65463,-79.42075,2234.4548961374326,$$$,3,387,4.0,Spanish,797 College Street,Toronto,ON,M6G 1C6
97,jrkzgoLCvk_IRw5e-3Zyrw,32 Chicken St.,43.6564,-79.40651,1160.0506310661535,NO $,0,10,4.5,Korean,409 College Street,Toronto,ON,M5T 1T1
98,BYDs_o6U4CLxJec8k1Q90Q,Poke Guys,43.65484,-79.38517,1265.5565656957456,$$,2,326,4.0,Hawaiian,112 Elizabeth Street,Toronto,ON,M5G 1P5
99,MMGnDeqMUNQsLC5V6BINjQ,Mr.Tonkatsu,43.66541,-79.41074,1235.8698547332244,$$,2,175,4.0,Japanese,520 Bloor Street W,Toronto,ON,M5S 1Y3
100,iJCI80Nwp514xIqBOgjhCA,Fat Pasha,43.67387,-79.41171,1745.836311334042,$$$,3,169,4.0,Middle Eastern,414 Dupont Street,Toronto,ON,M5R 1V9
101,HoNf-r8TzlSG05gbgpNiug,Torch Pressed Sushi,43.6659093206019,-79.3808230385184,1232.2953635741208,NO $,0,1,4.0,Japanese,507 Church St,Toronto,ON,M4Y 2C9
102,1PJpo48hSChCbriXEHGSjw,Opus Restaurant,43.66921,-79.3972299,670.5672344723048,$$$$,4,57,4.0,Wine Bars,37 Prince Arthur Avenue,Toronto,ON,M5R 1B2
103,7qHU_Zh5qEJP3DaaBHqWBg,Saigon Lotus,43.65449,-79.39928,1028.2983244734723,$$,2,148,4.5,Vietnamese,6 St Andrew Street,Toronto,ON,M5T 1K6
104,zrYpLdnGKA_EmOhgRCy_vg,Pomegranate Restaurant,43.6569,-79.40694,1155.7120494986739,$$,2,175,4.0,Middle Eastern,420 College Street,Toronto,ON,M5T 1T3
105,RvYjKtzdIPA2VBUpJJbzCw,Tokyo Kitchen,43.66908,-79.38509,1064.9312462940063,$$,2,119,4.0,Japanese,20 Charles Street E,Toronto,ON,M4Y 1T1
106,O1TvPrgkK2bUo5O5aSZ7lw,Rol San,43.6543527996563,-79.3983133882284,1014.2084170596735,$$,2,666,3.5,Dim Sum,323 Spadina Avenue,Toronto,ON,M5T 2E9
107,tHlJKmUECTlj2amcGG0TOQ,Bobbie Sue's Mac & Cheese,43.6478899,-79.42041,2624.6828890179263,$,1,102,4.0,Comfort Food,162 Ossington Avenue,Toronto,ON,M6J 2Z7
108,a1TTRvtMCDoxalOU6mUycg,Cabano's Comfort Food,43.66767,-79.38642,886.3890571209445,NO $,0,23,4.5,Comfort Food,75 Saint Nicholas Street,Toronto,ON,M4Y 0A5
109,L_tieGcFMQVSmk7XiA093A,Chine Hot Pot & Noodles,43.6545068365465,-79.3984092772007,999.1090085797255,$$,2,164,4.0,Chinese,327 Spadina Avenue,Toronto,ON,M5T 2E9
110,yxdmX8dXk5Se9zJ4WAW1pw,Vegetarian Haven,43.65599,-79.39278,842.3063440185987,$$,2,225,4.0,Vegetarian,17 Baldwin Street,Toronto,ON,M5T 1L1
111,s9JXZQq3E5Ol0Dk4zoU6CA,Constantine,43.66858,-79.38537,1015.8360604763446,$$,2,88,3.5,Mediterranean,15 Charles Street E,Toronto,ON,M4Y 1S1
112,uPa5hrWmHm0n1l4MSyVMGQ,Aloette,43.64851,-79.39584,1638.8124336988951,$$$,3,167,4.5,French,163 Spadina Avenue,Toronto,ON,M5V 2A5
113,McVmSLVRJBDWIuQO7D6GJg,Soos,43.6462593,-79.4197464,2708.6792684071515,$$$,3,144,4.0,Malaysian,94 Ossington Avenue,Toronto,ON,M6J 2Y7
114,d4P7boUqiA2pR59jOlzYLA,Assembly Chef's Hall,43.6503522,-79.3837951,1727.1792559226687,$$,2,228,4.0,Food Court,111 Richmond Street W,Toronto,ON,M5H 2G4
115,hkZh4tAa2oJ34i8hxej6Zg,The Gabardine,43.65095,-79.3815,1787.4132796842748,$$,2,363,4.0,Desserts,372 Bay Street,Toronto,ON,M5H 2W9
116,OXW2erFOPT-Oov6wChxWYA,Lee Chen Asian Bistro,43.6473690555399,-79.3867627903819,1909.4858112898012,$$,2,130,4.0,Dim Sum,214 King Street W,Toronto,ON,M5H 3S6
117,4m_hApwQ054v3ue_OxFmGw,Patria,43.6455399,-79.39641,1985.5401043758734,$$$,3,437,4.0,Spanish,480 King Street W,Toronto,ON,M5V 1L7
118,nHFJtud7jWZhM9dHQ1eIRA,Buk Chang Dong Soon Tofu,43.66363,-79.4169299,1709.9544142989944,$,1,430,4.0,Korean,691 Bloor Street W,Toronto,ON,M6G 1L3
119,YAnuTr6PyHRKCVbpg3U9Lw,Maison Close 1888,43.6532,-79.39974,1172.3317754004588,$,1,31,4.5,Cocktail Bars,21 Kensington Avenue,Toronto,ON,M5T 2J8
120,RrqcZLX05djKo1GVLMXMDQ,Korean Village Restaurant,43.66461,-79.41444,1514.8845882069813,$$,2,289,4.0,Korean,628 Bloor Street W,Toronto,ON,M6G 1K7
121,yY3jNsrpCyKTqQuRuLV8gw,Cactus Club Cafe,43.6493899,-79.38214,1874.425463591248,$$$,3,432,4.0,Cocktail Bars,77 Adelaide Street W,Toronto,ON,M5H 1P9
122,A4t1UT6j1lSQN6OM0Oy2GA,Bang Bang Burrito,43.66643,-79.4059,889.5040556139909,$,1,35,4.0,Mexican,366 Bloor St W,Toronto,ON,M5S 1X2
123,trKyIRyjKqVSZmcU0AnICQ,Pearl Diver,43.65163,-79.37375,2195.3900780852687,$$,2,526,4.0,Seafood,100 Adelaide Street E,Toronto,ON,M5C 1K9
124,ls8PFMtycSEvQDOZ5UAoXA,Matha Roti - East Indian Cuisine,43.66209,-79.40613,862.8163629576082,NO $,0,9,4.5,Indian,141 Harbord Street,Toronto,ON,M5S 2M2
125,XnNKFv5xqdPd9K1aAW-uUQ,Hancook Cheese Dakgalbi,43.66457,-79.41304,1407.8258976117152,$$,2,53,4.0,Korean,605 Bloor Street W,Toronto,ON,M6G 1K6
126,WEwf_IKutaFK2t-cdMhEWg,Thai Country Kitchen,43.6561499,-79.39968,854.6222848894092,$,1,126,4.0,Thai,412 Spadina Ave,Toronto,ON,M5T
127,O_UC_izJXcAmkm6HlEyGSA,Playa Cabana,43.6759577692695,-79.4011840224266,1477.3822700988214,$$,2,414,4.0,Mexican,111 Dupont Street,Toronto,ON,M5R 1V4
128,Pz13Ru_-U4qoZiu89ezVmQ,Utsav,43.67094,-79.39086,945.4170140347934,$$,2,117,4.0,Food Delivery Services,69 Yorkville Ave,Toronto,ON,M5R 1B8
129,xA4QVCgYHhuHoziwQNUWBg,Magical Taste of China,43.6535001316136,-79.3948590382934,1089.1888261629972,NO $,0,22,4.0,Chinese,405 Dundas Street W,Toronto,ON,M5T 1G6
130,S_F4XmLUZFv9Uzbjy44_NA,Tabriz Persian Cookhouse,43.66529,-79.38722,713.5360761530727,$$,2,45,4.0,Persian/Iranian,995 Bay street,Toronto,ON,M5S 3C4
131,qIbv9W83eceDWbb24-8Elg,Moliceiro Restaurant,43.64888,-79.42016,2555.8446558235173,$$,2,53,4.5,Portuguese,217 Ossington Avenue,Toronto,ON,M6J 2Z8
132,PD3ganU8NAGkqkcIXYPSxQ,Fudao noodle house,43.65461,-79.39905,1000.7072217160978,$$,2,105,4.0,Chinese,358 Spadina ave,Toronto,ON,M5T 2G4
133,Bf2fuqWbHd3L-X69FSMvmg,El Trompo Taco Bar,43.65591,-79.40227,976.1350788084243,$$,2,315,4.0,Mexican,277 Augusta Ave,Toronto,ON,M5T 2M1
134,jTZYireK6pnPb6Rni0jygw,Wow Sushi,43.6685157490107,-79.3868207931519,921.9535711839452,$$,2,389,4.0,Sushi Bars,11 Charles Street,Toronto,ON,M4Y 1R4
135,hQ66PZ605HFoaHW0dZAmYQ,Wafels & More,43.65469,-79.40175,1080.8668768408795,$,1,73,4.5,Breakfast & Brunch,237 Augusta Avenue,Toronto,ON,M5T 2L8
136,F_oPMHJrH42R67xp5eKtQA,Yummy Korean Food Restaurant,43.66469,-79.4140199,1485.9418783383805,$,1,207,4.0,Korean,620 Bloor Street W,Toronto,ON,M6G 1K7
137,r4uLhd8wBRea8H8sprBLUg,Liuyishou Hotpot Downtown Toronto,43.65169,-79.39796,1300.2442524865544,NO $,0,30,4.0,Hot Pot,254 Spadina Avenue,Toronto,ON,M5T 2C2
138,sa1ZAswk7kEQfg9Mb6iQwQ,L'Unita,43.67431,-79.39668,1236.5802225283023,$$$,3,115,4.5,Italian,134 Avenue Road,Toronto,ON,M5R 2H6
139,8CcmHGUGlEEF2eNvS3ndMg,Hacienda las Américas,43.65688,-79.40703,1166.7175354076012,$$,2,52,4.5,Mexican,424 College Street,Toronto,ON,M5T 1T3
140,ICFYlS9nwsoAyaiRXMu9tQ,Fuwa Fuwa Japanese Pancakes,43.6659512785201,-79.4078764691949,1023.2848600032719,$$,2,239,4.0,Desserts,408 Bloor Street W,Toronto,ON,M5S 2N5
141,XCToZZibnVb64XFJbLDgCQ,Zakkushi,43.64706,-79.40546,1963.461336323556,NO $,0,10,4.0,Japanese,620 Queen Street W,Toronto,ON,M6J 1E4
142,SZuroTnXB7FwOlHp8Jahyg,Aanch Modernist Indian Cuisine,43.64476,-79.39066,2103.007285301734,$$,2,93,4.0,Indian,259 Wellington St W,Toronto,ON,M5V
143,fGurvC5BdOfd5MIuLUQYVA,Dumpling House Restaurant,43.65378,-79.3987,1081.9760239738403,$,1,532,3.5,Chinese,328 Spadina Avenue,Toronto,ON,M5T 2E7
144,dvbcUnKv2awsIxog7dO4vw,Hong Kong Bistro Cafe,43.65348,-79.39686,1097.1244980825443,$,1,89,4.0,Chinese,472 Dundas Street W,Toronto,ON,M5T 1G8
145,CZxAlrWOD4Mu2K7FoAcRaA,Soba Canada,43.6713,-79.38382,1291.9915847935554,$$,2,11,4.0,Japanese,120 Bloor Street E,Toronto,ON,M4W 1B7
146,qaNt4vtVdge_S68DVjw5Jg,The Queen And Beaver Public House,43.65734,-79.38334,1202.81848559686,$$,2,365,4.0,Pubs,35 Elm Street,Toronto,ON,M5G 1H1
147,VA95qAV2PRH9gtTi2Vfv4Q,Trattoria Nervosa,43.67101,-79.39104,937.7730540349659,$$,2,307,3.5,Italian,75 Yorkville Avenue,Toronto,ON,M5R 1B8
148,IvSzF1r0hhTwGS1LGecGmA,Est West Cafe,43.65901,-79.39115,625.0035842067673,$,1,58,4.0,Sandwiches,700 University Ave,Toronto,ON,M5G 1Z5
149,fQwB9Z98YEhkJit7c3z51A,The Carbon Bar,43.6531872633836,-79.3747868765724,2022.4035847486061,$$$,3,355,4.0,Barbeque,99 Queen Street E,Toronto,ON,M5C 1S2
150,sXKDj1yjfWkwhx5AxrgdBw,Yummy Zone,43.66317,-79.38636,748.6549154690538,$,1,24,3.5,Taiwanese,895 Bay Street,Toronto,ON,M5S 3K6
151,OVrNItYaf-AWNGgeJA1Tsw,Cafe CanCan,43.6627153350009,-79.4034854592128,629.0181904371622,$$$,3,83,3.5,French,89 Harbord Street,Toronto,ON,M5S 1G4
152,TR0-w6VoZDAdvFQiq7P2Ug,Millie Creperie,43.6549488110679,-79.3996712565422,979.4268197472753,$,1,358,4.0,Creperies,161 Baldwin Street,Toronto,ON,M5T 1L8
153,yFQCdWr_k1pTObzHPGis9Q,Grasshopper Restaurant,43.65776,-79.4021999,808.2077094019849,$$,2,163,4.0,Vegan,310 College Street,Toronto,ON,M5T 1S2
154,IQ3esF7MvIOCbeVetW51Ng,Harvest Kitchen,43.66278,-79.40437,698.7300985482067,$$,2,178,3.5,Canadian (New),124 Harbord Street,Toronto,ON,M5S 1G8
155,qUWqjjjfpB2-4P3He5rsKw,Levetto,43.65529,-79.39933,934.1800961735414,$$,2,136,4.0,Pizza,382 Spadina Avenue,Toronto,ON,M5T 2G5
156,zHNk2BnANwkvHvaXD7yYsg,Té,43.64575,-79.41964,2741.5434821877675,$$,2,81,4.0,Asian Fusion,70 Ossington Avenue,Toronto,ON,M6J 2Y7
157,DZkl5MleRKh0isxj1Y2Abg,Chabrol Restaurant,43.67115,-79.3918,935.3794647692768,$$$,3,70,4.0,French,90 Yorkville Avenue,Toronto,ON,M5R 1B9
158,QE1tzFyyyRKV1p7C4LRukQ,Nando's Flame Grilled Chicken,43.6617048,-79.3862897,777.2121995183911,$$,2,189,3.5,Portuguese,832 Bay St.,Toronto,ON,M5S 1Z6
159,iB1iGtTgr3fucKrT9yxinw,Mr.Tonkatsu,43.66434,-79.38454,907.5088403811851,$$,2,62,4.0,Japanese,548 Yonge Street,Toronto,ON,M4Y 1Y8
160,PMACs_KByRaEcVUs9jO_Vg,Latin Taste,43.655127,-79.401609,1023.115401609621,$,1,30,4.5,Latin American,200 Baldwin Street,Toronto,ON,M5T 1L8
161,WP1e-VmnTW2K0A9dMCF10g,Canis,43.6460933596731,-79.4101145473278,2234.8692720210915,$$$,3,67,4.5,Canadian (New),746 Queen Street W,Toronto,ON,M6J 1E9
162,gOvEzwpu3KbW5aJReQzYRg,North Poke,43.65472,-79.4004999,1024.5538672924797,$$,2,182,4.0,Hawaiian,179 Baldwin Street,Toronto,ON,M5T 1L9
163,9Eghhu_LzEJgDKNgisf3rg,SCADDABUSH Italian Kitchen & Bar,43.659095,-79.382915,1128.9803111786068,$$,2,425,3.5,Wine Bars,382 Yonge Street,Toronto,ON,M5B 1S8
164,abWt3B-dvJ1oVj83ebYoyg,Rickshaw Bar,43.64678,-79.4049299,1978.5469145295372,$$,2,102,4.0,Tapas/Small Plates,685 Queen Street W,Toronto,ON,M6J 1E6
165,G8qvbhfbCyMAeZzYrbmZxA,Carmen,43.6448801059488,-79.4158409535885,2609.37597060967,$$$,3,144,4.0,Spanish,922 Queen Street W,Toronto,ON,M5T 2L9
166,Qqm3yVcqTbC1IOKu0TG2nQ,Dal Moro's Fresh Pasta To Go,43.66684,-79.38503,933.2427568066921,$$,2,143,3.5,Italian,605 Yonge Street,Toronto,ON,M4Y 1Z5
167,aZvpusVrq7hn0PhhaPyhAg,SARA,43.64519,-79.40062,2049.120641395242,NO $,0,27,3.5,Canadian (New),98 Portland Street,Toronto,ON,M5V 2N2
168,fZDNuuFSnCtcXI3_RAFcSQ,Ozzy's Burgers,43.65527,-79.40261,1050.2834893038666,$$,2,90,4.0,Burgers,66 Nassau St,Toronto,ON,M5T 1M5
169,lDpVyjENOz_qbxbRoyBi8w,Black Camel,43.677122232751,-79.389209714264,1625.7911389514977,$,1,323,4.5,Sandwiches,4 Crescent Road,Toronto,ON,M4W 1S9
170,LBQD0H2109oltJNF1raLWA,The Haam,43.64743,-79.39308,1778.9511349704344,$$,2,132,4.0,Japanese,342 Adelaide St W,Toronto,ON,M5V 1R7
171,rO3lZpVSoRMhhd0AEJBjlg,Sunrise House,43.66401,-79.41561,1608.243911119556,$,1,195,4.0,Korean,661 Bloor Street W,Toronto,ON,M6G 1L1
172,w5-llUi5t59YZRI_dOSi0w,Library Bar,43.646075,-79.381821,2214.935122506882,$$$,3,95,4.0,Lounges,The Fairmont Royal York,Toronto,ON,M5J 1E3
173,4MQaqhBUJCpghGukSWNq7w,The Loose Moose,43.64522,-79.38385,2219.88797998324,$$,2,355,3.5,Sports Bars,146 Front Street West,Toronto,ON,M5J 1G2
174,D-8yidw7FLKKQpciKJSd2g,The Burgernator,43.6556342,-79.4024449,1008.0355649879868,$$,2,319,4.0,Burgers,269 Augusta Avenue,Toronto,ON,M5T 1M5
175,2gDHQELrlq3jVuZZfJeWUg,Chop Chop,43.6519395,-79.40702,1554.9228109959452,$,1,58,4.0,Chinese,771 Dundas Street W,Toronto,ON,M6J 1T9
176,SW6ZQk22G1_CV81_gfnvNQ,La Carnita,43.656012010874,-79.4096839427948,1384.6159415750326,$$,2,482,3.5,Mexican,501 College Street,Toronto,ON,M5S 2K2
177,K3NW8TEu4QRQvFvHer8v4A,Joso's,43.6751099,-79.39607,1310.2088002700746,$$$,3,140,4.5,Seafood,202 Davenport Road,Toronto,ON,M5R 1J2
178,-ICGmF2qUVKdvOehVNgPbg,Lamesa Filipino Kitchen,43.647069,-79.404677,1941.3671797289023,$$,2,285,4.0,Filipino,669 Queen Street W,Toronto,ON,M6J
179,o6Yor6ofIw2TqM3mN28Kzg,Tacos El Asador,43.6636499,-79.41686,1706.7646486005447,$,1,275,4.0,Mexican,689 Bloor Street W,Toronto,ON,M6G 1L2
180,vO4rIXzsK3aWn1EZ4cHwXQ,Mother Tongue,43.64739,-79.39327,1779.7713485983745,NO $,0,29,4.0,Cocktail Bars,348 Adelaide Street W,Toronto,ON,M5W 1R7
181,txu9xTY-ux48HS8m7eUofw,M'Zaar Restaurant,43.6672475,-79.3855441,928.9158646948364,$,1,117,4.0,Lebanese,668 Yonge Street,Toronto,ON,M4Y 2A6
182,oJSa5HCiZXKLXxggQmecEQ,Campagnolo,43.65176,-79.40951,1698.5468035518836,$$$,3,214,4.0,Tapas/Small Plates,832 Dundas Street W,Toronto,ON,M6J 1V3
183,xwmwTpzw9XSwK-UT5Ka3HQ,Bellwoods Brewery,43.64713,-79.42015,2672.480662785334,$$,2,310,4.0,Breweries,124-126 Ossington Avenue,Toronto,ON,M6J 1R5
184,TQp5cls3bgIUZZRSC4g1pQ,Gushi Japanese Street Food,43.65179,-79.40485,1480.9394214486408,$,1,99,4.0,Street Vendors,707 Dundas Street W,Toronto,ON,M5T 2W6
185,iZ_Hdpxqwt3-c6349wXhuA,Jin Dal Lae,43.664166,-79.41517,1568.922167575287,$$,2,49,4.5,Korean,647 Bloor Street W,Toronto,ON,M6G 1L1
186,WRPlRsDK47DFl3dz65zhYg,Pinky's Ca Phe,43.6557045377745,-79.4138196639558,1683.0175989080392,$$,2,123,4.0,Vietnamese,53 Clinton Street,Toronto,ON,M6G 2Y4
187,_T7f2wUgNlJqxsR-cR89SQ,Scaramouche Restaurant Pasta Bar & Grill,43.68155,-79.39991,2049.402125868529,$$$$,4,266,4.5,French,1 Benvenuto Place,Toronto,ON,M4V 2L1
188,Jm_bARKbaZyzoxatBrmZPQ,Chadwick's,43.673524,-79.4118708,1728.9440223724027,$$,2,176,4.0,Canadian (New),268 Howland Avenue,Toronto,ON,M5R 3B6
189,5m2JukTajxMk-qS5W4s-FA,Charidise,43.65592,-79.39315,846.0607284929902,$$,2,171,3.5,Desserts,27 Baldwin Street,Toronto,ON,M5T 1L1
190,jOqh0eVjqtUOpZ9AZgSazA,Grey Gardens,43.6537999,-79.40143,1150.8983984531349,$$$,3,76,4.5,Wine Bars,199 Augusta Avenue,Toronto,ON,M5T 2L4
191,rl137V_5Hx0cJAV4beVdhA,Campechano Taquería,43.64586,-79.40077,1984.3976284828775,$$,2,138,4.0,Mexican,504 Adelaide Street W,Toronto,ON,M5V 1T4
192,HFPovXxiMQ451N80-E-vyQ,Emporium Latino,43.65485,-79.40182,1063.758434757292,$,1,62,4.0,Latin American,243 Augusta Ave,Toronto,ON,M5T 2L8
193,NoT7u2QNEvsVbH9MIzAzlw,Si Lom Thai Bistro,43.66503,-79.38082,1213.3437995590411,$$,2,119,4.0,Thai,534 Church Street,Toronto,ON,M4Y
194,OSF8Iy5Xq-hAN4-zhDVS4w,Bar Reyna,43.6700299,-79.39335,777.2895025571326,$$,2,95,3.5,Mediterranean,158 Cumberland Street,Toronto,ON,M5R 1A8
195,G1Ce_QBHwT_R8Fc2-ARrwQ,Tachi,43.6502911,-79.3839517,1725.9030718072706,$$$,3,109,4.5,Sushi Bars,Assembly Chef's Hall,Toronto,ON,M5H 2G4
196,hqi9zoHMqpSLy628aHGVOQ,Jumbo Empanadas,43.65487,-79.40188,1063.758434757292,$,1,131,4.0,Latin American,245 Augusta Avenue,Toronto,ON,M5T 1M5
197,KMHh4Ekor5ij1HdCjkPJLA,Hogtown Vegan,43.657019401402,-79.405302554369,1039.3383509297105,$$,2,42,4.5,Vegan,382 College Street,Toronto,ON,M5T 1S7
198,7wE_iSOz62vSXyR7kS7ubg,Pasta Mondo,43.6563212885996,-79.388174302876,982.3532421094142,NO $,0,4,4.5,Italian,525 University Avenue,Toronto,ON,M5G 2L3
199,b4LmLgVdbhM-nc1IZc5Weg,Rodney's Oyster House,43.644948,-79.396846,2040.0858514293861,$$$,3,350,4.0,Seafood,469 King Street W,Toronto,ON,M5V 1K4
200,6HzcFV_bcB3Vv-3eGDHf_A,Four Four South VIllage,43.66232,-79.38376,959.2497542384247,NO $,0,61,3.0,Taiwanese,474 Yonge Street,Toronto,ON,M4Y 1A1
201,0cXP1HGWMtKoxcmUR4KSjg,Kid Lee,43.6487084956596,-79.3814887516685,1982.8914807139843,$$,2,75,4.0,Asian Fusion,100 King Street W,Toronto,ON,M9N 1L3
202,6y-8X9oJI8ZAFqm5NKdGLw,The Shozan Room,43.64791,-79.4205,2615.793698236911,NO $,0,5,5.0,Japanese,164 Ossington Ave,Toronto,ON,M6J 2Z7
203,hDy-uY7Vy_TZdGBzw59lhA,Saku Sushi,43.6482,-79.4003,1733.103891591787,$$,2,429,4.0,Sushi Bars,478 Queen Street W,Toronto,ON,M5V 2B2
204,9LE2yGl23qxitNc9mkpbjA,Fresca Pizza & Pasta,43.65788,-79.40171,777.1028315059158,$,1,102,4.0,Pizza,302 College Street,Toronto,ON,M5T 3M1
205,9tfw-OEfpF0qC2hSzRks6g,Hair of the Dog,43.662946823805,-79.379592870241,1296.5129069470456,$$,2,308,4.0,Pubs,425 Church Street,Toronto,ON,M4Y 2C3
206,txuns3sXXMKhDFN7JlN8gw,Church's Chicken,43.6640876,-79.3840146,939.6639084102222,NO $,0,2,4.0,Fast Food,531 Yonge Street,Toronto,ON,M4Y 1Y5
207,WbS58nfQQZaxWk1BUPBuJQ,The Poke Box,43.6505,-79.37657,2090.8272559163343,$$,2,150,4.5,Salad,36 Toronto Street,Toronto,ON,M5C 2C5
208,YJ05ntGlszxACOD5zn1YjA,The Burger's Priest,43.6485331,-79.3973028,1644.4087682137688,$$,2,353,4.0,Burgers,463 Queen Street W,Toronto,ON,M5V 2A9
209,n2NRR4N-kmeDvhHJivHGkA,Gyu-Kaku Japanese BBQ,43.6515,-79.37482,2119.020780248432,$$,2,155,4.0,Japanese,81 Church Street,Toronto,ON,M5C 2G2
210,1GLyPxQ-dSO76SeoNtjE9Q,Coq of the Walk,43.6563299,-79.40954,1359.6899528023182,$$,2,6,5.0,Brasseries,488 College Street,Toronto,ON,M6G 1A4
211,_8VjsTaiLF2kCwYG_HY5Zw,T-swirl Crêpe,43.66342,-79.38414,931.7906889404279,$,1,80,4.0,Creperies,510 Yonge Street,Toronto,ON,M4Y 1X9
212,Y9LN295xg9dQGBgbtu9Oaw,illstyl3 Sammies,43.6490226373162,-79.3915508687496,1619.7769257612808,$,1,50,4.5,Cheesesteaks,300 Richmond Street W,Toronto,ON,M5V 1X2
213,cQK9M2JAwETQnnBoYyua5A,The Senator,43.65574,-79.37896,1583.6625769921704,$$,2,445,4.0,Lounges,249 Victoria Street,Toronto,ON,M5B 1T8
214,kl2kuAgGZ7tfi9kznMhQNA,Crimson Teas,43.65701,-79.39931,755.0002726187952,$,1,31,4.5,Cafes,415 Spadina Avenue,Toronto,ON,M5T 2G6
215,wcR9Vbwn2EmlSeV7uBUIsA,Hemingway's Restaurant,43.67015,-79.39279,788.7594282967245,$$,2,238,3.0,Bars,142 Cumberland St,Toronto,ON,M5R 1A8
216,aWJEgudoVLnxDqleDveNSg,Helena's Magic Kitchen,43.65355,-79.39014,1174.8338152566503,$,1,23,4.5,American (Traditional),122 St. Patrick St,Toronto,ON,M5T
217,t5wRrTWlUNZkhrHGByqI-w,Sheherzade Persian Grill And Dizi,43.65689,-79.40698,1162.5751277398106,$$,2,96,4.0,Persian/Iranian,422 College St W,Toronto,ON,M5T
218,z8H4Mdzl4jS9pYswj6Jf9w,Buca Yorkville,43.67214,-79.3894,1108.9027007849236,$$$,3,174,3.5,Italian,53 Scollard Street,Toronto,ON,M5R 0A1
219,aRvCyCpwxgIqjXSSZ8pt3g,Mallo,43.6646307,-79.4107376,1218.5999783673144,$,1,31,5.0,Coffee & Tea,785  Bathurst Street,Toronto,ON,M5R 3G3
220,AdS6ZvrSQK10HXY9-Dyi4w,Kimama,43.6457321685341,-79.3898828700185,2006.25155110582,$$,2,15,4.0,Korean,7 Mercer Street,Toronto,ON,M5V 1H2
221,x6fYvse8sBOZf9y8BOZZmA,Mamakas Taverna,43.64596,-79.41986,2741.303709409837,$$$,3,171,4.0,Greek,80 Ossington Avenue,Toronto,ON,M6J 2Y7
222,m2hz26KM3kLN_AS5CcEjPg,East Thirty-Six,43.6484529,-79.3750706,2339.3043979691047,$$,2,164,4.0,Cocktail Bars,36 Wellington Street E,Toronto,ON,M5E 1C7
223,mU4EnLW8Z6GRvA93HSwInQ,Farm'r Eatery & Catering,43.64856,-79.37026,2622.224003545441,$$,2,60,4.5,Canadian (New),140 The Esplanade,Toronto,ON,M5A 4P5
224,bebSq0oaQdgPX4tAPkgDlw,Salad House,43.6695636,-79.3855593,1074.5376741520847,$,1,72,4.5,Salad,13 Hayden Street,Toronto,ON,M4W 3T5
225,nb2Bpt5uGGZvNhnkEGMnpw,The Irv Gastro Pub,43.6635399,-79.3705826,2020.9803702659074,$$,2,103,4.5,Burgers,195 Carlton Street,Toronto,ON,M5A
226,nktQ_aBRp5CmVOkXR0Mz1g,Arisu Korean BBQ & Sushi,43.6651,-79.41265,1381.1469209773895,$$,2,178,3.5,Japanese,584 Bloor Street W,Toronto,ON,M6G 1K4
227,Gc8xWVpbUlBYHAoOT9MTyQ,La Cubana,43.6462083,-79.419674,2705.6626631748695,$$,2,190,4.0,Cuban,92 Ossington Avenue,Toronto,ON,M6J 2Z4
228,Sk0Ycurq7D083Qs8x65b_Q,George,43.65323,-79.37446,2059.39529755805,$$$$,4,244,4.5,Canadian (New),111 Queen Street E,Toronto,ON,M5C 1S2
229,-b-waFIsc6BJdXWOJMRKEQ,Marinellas Italian Restaurant,43.6550764057418,-79.4154641032219,1832.517578718078,$$$,3,129,4.5,Italian,640 College Street,Toronto,ON,M5V 2E8
230,1Fpk8ibHhZYnCw8fnGny8w,Baro,43.64486,-79.39693,2057.482026249024,$$$,3,113,3.5,Latin American,485 King Street W,Toronto,ON,M5V 1K4
231,GW5oBBgoznV97tIap_WRZw,Mi'hito Sushi Laboratory,43.6711378274163,-79.3944513425231,879.9457444373738,NO $,0,4,4.5,Sushi Bars,55 Avenue Road,Toronto,ON,M5G 1C9
232,JJ8ypBu3b--fy4HA5RB1gg,Morton's The Steakhouse,43.6697130529198,-79.3949747085571,718.1298777921567,$$$$,4,101,4.0,Steakhouses,4 Avenue Road,Toronto,ON,M5R 2E8
233,jYIqQ9rovccjFtJhiEWVnQ,Mymy Chicken,43.66618,-79.40718,979.260278493856,$$,2,61,3.5,Korean,394 Bloor Street W,Toronto,ON,M5S 1X4
234,MJH6UDLvXW8ySdp0pWiKQQ,Seoul Food Take-Out,43.6720547517741,-79.3768996372819,1800.1450589482943,$,1,22,4.5,Korean,606 Sherbourne Street,Toronto,ON,M4X
235,o4gB1zWiCHgbjq-tNFRW-g,Panpan Noodle Bar,43.65594,-79.393,840.7232306205099,$,1,59,3.5,Noodles,23 Baldwin Street,Toronto,ON,M5T 1L1
236,tTzQZTrwBgwxMch77nCJfQ,Hibiscus,43.65539,-79.40259,1034.3461389037107,$$,2,246,4.0,Vegan,238 Augusta Avenue,Toronto,ON,M5T 2L7
237,esnvHQxunLTAckQpntqbCg,Stelvio,43.649212,-79.395485,1563.9817931010105,$$,2,98,4.0,Italian,354 Queen Street W,Toronto,ON,M5V 2A5
238,gCbS0X8w7vZ9CLWvMNXocA,Jacques' Bistro Du Parc,43.6700941,-79.3920355,813.508331457084,$$$,3,47,4.0,French,126 Cumberland St,Toronto,ON,M5R 1A6
239,ohEGwJtSqrVd2SD-FKKrUQ,Napoli Centrale,43.6695182,-79.4129745,1552.8739439148794,$$,2,55,4.5,Italian,964 Bathurst Street,Toronto,ON,M5R 3G5
240,DfFpLzaufkkDIEq1M05gVg,Shish Kabab Express,43.6558599,-79.38427,1248.2707343333554,$,1,51,4.0,Halal,112 Dundas Street W,Toronto,ON,M5G 1C3
241,-CLTZ0cO-ooKDDmXHFoGMg,Pi Co,43.66998,-79.38986,882.1894349065127,$$,2,90,4.0,Pizza,1200 Bay Street,Toronto,ON,M5R 2A5
242,Tn8O4tv1U-n0PRC8kbJJPg,Nguyen Huong Food,43.65365,-79.3987,1091.6948162771557,$,1,177,4.0,Bakeries,322 Spadina Avenue,Toronto,ON,M5T 2G2
243,kIdLsbi4wdPZzMYRJmD48g,Harvest Green,43.6461178,-79.3858032,2032.7479136876339,$,1,23,4.5,Canadian (New),200 Wellington Street W,Toronto,ON,M5V 3C7
244,Bppm5wvhLkppQ7cRu83dwg,FAT Lamb Kouzina,43.6725513513524,-79.3878677360848,1208.696126890423,$$,2,86,4.0,Greek,874 Yonge Street,Toronto,ON,M4W 2J1
245,2XUYdiTgCsDE0k61QC422A,Crepes Club,43.6558431,-79.3938967,839.231514527153,$$,2,54,4.0,Ukrainian,49 Baldwin Street,Toronto,ON,M5T 1L3
246,PMWgYeZZdrFacXxaCFvKKw,Casa Fuego,43.6485,-79.3882,1749.6346498017758,NO $,0,12,4.5,Steakhouses,230 Adelaide Street West,Toronto,ON,M5H 3H1
247,DT7iqs2I804ECr9p5VFMrA,Maido Japanese Restaurant,43.6664314,-79.405632,881.6089108886499,$$,2,65,4.0,Japanese,364 Bloor Street W,Toronto,ON,M5S 1X2
248,5oV7oSbo9h4nzWxNfoLc4A,K-Wok,43.6689115417723,-79.3864700943232,971.7616074684211,NO $,0,15,3.5,Korean,730 Yonge Street,Toronto,ON,M4Y 2B7
249,Yw5qYKInQfqekfX1CIxXAA,Vietnam Lovely Noodle,43.66641,-79.40626,911.7747374505001,$$,2,29,4.0,Noodles,378 Bloor Street W,Toronto,ON,M5S 1X2
250,4h0JeXtiLaqqpB-9-V7few,98 Aroma,43.65699,-79.40001,791.5099877060504,$$,2,75,4.0,Chinese,440 Spadina Avenue,Toronto,ON,M5T 2G8
251,fJ-2acaqvWOsujUTAJB-ew,Raijin Ramen,43.66484,-79.38607,805.3345025268113,$$,2,336,3.5,Ramen,24 Wellesley Street W,Toronto,ON,M4Y 2X6
252,cTbFJzHQzFSX-z3JF4abKQ,One Restaurant,43.6708799,-79.39323,862.9328298963376,$$$$,4,183,3.5,Canadian (New),116 Yorkville Avenue,Toronto,ON,M5R 1C2
253,D5TMuuWTBz4I8UJQEVX5Hw,Caffiends,43.6669946,-79.3920457,507.48826599295114,NO $,0,1,5.0,Cafes,91 Charles Street W,Toronto,ON,M5S 1K6
254,JMiaNitMzMbJm6Kh0RbT5A,Canoe,43.646954,-79.382159,2116.9727490677537,$$$$,4,642,4.0,Canadian (New),66 Wellington Street  W,Toronto,ON,M5K 1H6
255,Fx5haZv9PP3E7Ljp-h7B1Q,Eggspectation,43.6532721,-79.3812455,1609.4722853773562,$$,2,550,4.0,Breakfast & Brunch,483 Bay Street,Toronto,ON,M5H 2C9
256,YtfQQHdcQ_bGl2V0Agxw1A,Bindia Indian Bistro,43.6486948,-79.3719955,2503.3778961067383,$$,2,155,4.0,Indian,16 Market Street,Toronto,ON,M5E
257,-OxDX2fPQLYi6ChW2Z6xxQ,Fresh On Bloor,43.666863,-79.4035738,744.3251709062191,$$,2,294,3.5,Vegetarian,326 Bloor Street W,Toronto,ON,M5S 1W5
258,i-Mn8RJw5xUkITQBVvcKcQ,Sofia,43.67076,-79.39183,874.2827758351485,$$$$,4,31,3.0,Italian,99 Yorkville Ave,Toronto,ON,M5R 1C1
259,ynmTXY9yJDiNkO4HUmxRSQ,KaKa All You Can Eat,43.6578757,-79.3843752,1091.411040906287,$$$,3,171,3.5,Japanese,655 Bay Street,Toronto,ON,M5G 2K4
260,Yw7DrirB-4z3EoyuJ5D-QA,Mo' Ramyun,43.65611,-79.39228,848.9145510325949,$$,2,63,3.5,Korean,1 Baldwin St,Toronto,ON,M5T 1L1
261,xrA53WYhRCml2bMfpQ_Hig,La Palma,43.6512699,-79.41009,1766.5728955773384,$$$,3,133,3.5,Italian,849 Dundas Street W,Toronto,ON,M6J 1V6
262,OAMF8Dlk8OwfGG_1HP2ZRw,The Fry,43.6642528082569,-79.3844366446137,912.8341388940728,$$,2,56,3.5,Korean,544 Yonge Street,Toronto,ON,M4Y 1Y8
263,U_jPOTd-Z5KATbTYnDeNxg,Burrito Bandidos,43.6630940440624,-79.3840069720838,941.143485133677,$,1,105,4.0,Mexican,2 Grosvenor Street,Toronto,ON,M4Y 1A8
264,z_twvOBwyGNbuxJhsiJofg,PG Clucks,43.65532,-79.41456,1758.6825758743528,$,1,126,4.0,Sandwiches,610 College Street,Toronto,ON,M6G 1B4
265,tCjlXROlbcaGiBRfU2jaiw,The Keg Steakhouse + Bar - Mansion,43.66683,-79.37788,1483.2349563013634,$$$,3,301,4.0,Steakhouses,515 Jarvis Street,Toronto,ON,M4Y 2H7
266,7ODXq--HE7QpzvWwgk5rMA,Barberian's Steak House,43.6576,-79.38212,1259.4216721151165,$$$$,4,254,4.0,Steakhouses,7 Elm Street,Toronto,ON,M5G 1H1
267,269jIQkeE98UJQUeCgQNuQ,Big Crow,43.6757182,-79.4035656,1521.1130323853838,$$$,3,139,4.0,Canadian (New),176 Dupont Street,Toronto,ON,M5R 2E6
268,ALkOqlWODyxPg5VSp0HLrg,Zakkushi On Carlton,43.66343,-79.37062,2012.5047550986264,$$$,3,273,4.0,Japanese,193 Carlton Street,Toronto,ON,M5A 2K9
269,27_N5P9HZ86IviONPT_twg,Woodlot Restaurant,43.65578,-79.40988,1410.0802297463042,$$$,3,258,4.0,Vegetarian,293 Palmerston Avenue,Toronto,ON,M6J 2J3
270,NFyB1bp9a7tGB2cnSjOUDw,Hogtown Smoke,43.64909,-79.37433,2321.9515097235576,$$,2,49,4.0,Barbeque,55 Colborne Street,Toronto,ON,M5E 1E3
271,ubDO6BYjnPSIZIpWxXGdlQ,Karine's,43.654152,-79.391194,1077.5058544895512,$,1,221,4.0,Breakfast & Brunch,109 McCaul Street,Toronto,ON,M5T 3K5
272,oRy013Ovh_RtEouO-rGX2A,Veggie D'Light,43.6550705,-79.399633,965.6323591401721,$,1,63,4.5,Caribbean,160 Baldwin Street,Toronto,ON,M5T 3K7
273,y9yeMK6N0UINVECI3Ijz3Q,Hot Dog Stand,43.66453,-79.39913,318.705166433029,NO $,0,3,4.0,Hot Dogs,130A St George St,Toronto,ON,M4W 1A7
274,K-tKnqhblGR7K4R3roKmqA,Kanga,43.649907508769,-79.3892604579453,1574.3409838317898,$,1,169,4.0,Australian,65 Duncan Street,Toronto,ON,M5V 1Z4
275,Qmwfg-PtYuCo5Q_IwcA_HQ,JaBistro,43.64989,-79.38821,1618.6768983639784,$$$,3,466,4.0,Japanese,222 Richmond Street W,Toronto,ON,M5V 1W4
276,K5Q2vkF5UpytV9Q1rB-5Yg,Akira Back,43.64541,-79.3923,2016.7972636586928,$$$$,4,88,4.0,Japanese,80 Blue Jays Way,Toronto,ON,M5V 2G3
277,oZP0Ynj-yHUxJUmY7-HaUA,Rustle & Still Café,43.66457,-79.41304,1407.7458536053337,$,1,78,4.5,Coffee & Tea,605 Bloor Street W,Toronto,ON,M6G 1K6
278,Xw50tINqzrI_BM_x7_IcZA,Crêpes à GoGo Spadina,43.6664590537968,-79.4041928166715,769.061394367173,$$,2,87,4.0,French,750 Spadina Avenue,Toronto,ON,M5S 2J2
279,bl0GSLa6DvLXCvhAw5DVUg,The Pie Commission,43.6509705,-79.4117203,1882.9395637975526,$,1,67,4.5,Fast Food,887 Dundas Street W,Toronto,ON,M6J 1V9
280,Iov02yUKZVj-Z3A3u37ExA,River Tai Restaurant,43.66316,-79.40309,593.305889873344,$,1,16,4.0,Thai,92 Harbord Street,Toronto,ON,M5S 1G5
281,1vqFEbZ4xUsHAbiHmPzuhw,Soufi's,43.64667,-79.4073499,2075.7272474055,$,1,62,4.5,Coffee & Tea,676 Queen Street W,Toronto,ON,M6J 1E5
282,pNlCFEtmyrGMX6dfbPoaXg,Mochica,43.65529,-79.41467,1765.39229048469,$$,2,22,4.0,Peruvian,614 College Street,Toronto,ON,M6G 1B4
283,MUjlAtBNJR--7ai5pITbMg,Bar Mercurio,43.6674817706316,-79.4006463811387,613.7565104638949,$$$,3,44,3.5,Italian,270 Bloor Street W,Toronto,ON,M5S 1V8
284,7ZBh-3wWVQ5zkd6KZytW0g,Cibo Wine Bar,43.67047,-79.3936,817.5801970828082,$$$,3,129,3.0,Wine Bars,133 Yorkville Avenue,Toronto,ON,M5R 1C4
285,KTsMFt_3z3NclQWS8sARmQ,Kushimaru,43.65672,-79.38366,1209.2633866504157,NO $,0,44,3.5,Japanese,64 Edward Street,Toronto,ON,M5G 1C9
286,u71djaZjecGVU1MqMevQ4g,Ristorante Sotto Sotto,43.67374,-79.39646,1164.4490185659363,$$$,3,92,4.0,Italian,120 Avenue Road,Toronto,ON,M5R 2H4
287,Z5kjUEm1A18l864gb3XA8A,Town Crier Pub,43.6481433882002,-79.3901514674822,1740.9939456103023,$$,2,186,4.0,Pubs,115 John St,Toronto,ON,M5V 2E2
288,bo4loBeLwkQqZ7HGrgxXRQ,Trattoria Taverniti,43.65511,-79.41348,1693.9633930294233,$$,2,117,4.0,Italian,591 College Street,Toronto,ON,M6G 1B2
289,MNIIRlWXotubOauSksv9AQ,Akai Sushi,43.66259,-79.40505,759.0248691476186,$$,2,76,4.0,Japanese,168 Major Street,Toronto,ON,M5S 2L3
290,12ZWrbvYEkMr4saLTq_IzQ,Chelsea's,43.6711,-79.37488,1884.3738425105855,NO $,0,1,4.0,Filipino,29 Howard Street,Toronto,ON,M4X 1J6
291,_u1Bq7QsgMUXSMex8QHqLQ,Burrito Boyz,43.648702,-79.388077,1732.868007534152,$,1,403,4.0,Mexican,224 Adelaide Street W,Toronto,ON,M5H 1W7
292,zfQ855VX3SMA_54oVSN5Cw,Fresco's Fish & Chips,43.6538341,-79.4015484,1150.3815873944257,$$,2,325,4.5,Fish & Chips,201 Augusta Avenue,Toronto,ON,M5T 2L4
293,U2fAN5cZTMKm9mvQns-VKw,Planta Queen,43.65082,-79.3878,1519.5784251169566,NO $,0,1,5.0,Vegan,180 Queen Street W,Toronto,ON,M5V 3X3
294,HvkPnvoyyOEesBkZ8gkOIA,Ehwa J Bar,43.667825,-79.385215,983.7079312276989,$$,2,38,4.0,Bars,16 Isabella Street,Toronto,ON,M4Y 2A1
295,cfD9cKtsPGWuoB9QyvWjag,Mandi Guys,43.65651,-79.37859,1573.9658229560819,NO $,0,5,5.0,Halal,98 Bond Street,Toronto,ON,M5B 1C9
296,bNHeKmkBx5emT9xLfdWyjw,Tokyo Sushi,43.6655988169559,-79.3869840388907,747.4654967551438,$$,2,106,4.0,Sushi Bars,33 St Joseph Street,Toronto,ON,M4Y 1J8
297,i_V36U612XnJ5SJAE1OPWw,Apiecalypse Now!,43.663457,-79.4181891,1838.7195507421025,$,1,174,4.5,Pizza,735 Bloor Street W,Toronto,ON,M6G 1L5
298,EA7NU-fwH9VtCCVd3yO1fg,Spot Crepes & Tea,43.6564001432905,-79.3991507040124,813.3112070948605,$$,2,34,4.5,Creperies,385 Spadina Avenue,Toronto,ON,M5T 2G6
299,KVpvE6pOPM9KMvak4HFsNg,Pizzeria Libretto,43.64898,-79.42021,2539.3840789226997,$$,2,529,4.0,Pizza,221 Ossington Avenue,Toronto,ON,M6J 2Z8
300,JXPbwc0LkEJxQstYgb84Zw,Tocino Boys,43.6492443729602,-79.4209552556276,2561.467515307374,$,1,8,4.5,Street Vendors,214 Ossington Ave,Toronto,ON,M6J 2Z9
301,aRqxT28Tdz2aDiZ7Vkyejw,White Brick Kitchen,43.6641761663864,-79.414961199638,1552.2326216946028,$$,2,229,4.0,Breakfast & Brunch,641 Bloor Street W,Toronto,ON,M6G 1L1
302,nER4r71-nLBpy4ZkrsAOYg,Park Hyatt Toronto Kosher Annona Restaurant,43.66919,-79.39471,668.507872081675,$$$$,4,5,5.0,Kosher,4 Avenue Road,Toronto,ON,M5S 1T6
303,4Ua5_CI0rKq3ar5hUTUprw,KINTON RAMEN,43.6603113,-79.3789004,1385.7911292505992,$$,2,170,4.0,Ramen,396 Church Street,Toronto,ON,M5B 2A2
304,H1RPyMTIr3xGD6g0kxvhpg,Brothers,43.6709006518955,-79.3900142982602,963.4297743535193,$$$,3,45,3.5,Wine Bars,1240 Bay Street,Toronto,ON,M5R 2A7
305,XhI9jFlXmT33LQzOHkJrlw,Ken Ho's Snack Service,43.6597099,-79.39711,418.35133017352257,$,1,6,3.0,Food Stands,40 St George St,Toronto,ON,M5S 2E4
306,WVAvGK24DQ9FdsEHBqIygQ,Mi Taco Taqueria,43.65026,-79.38865,1551.7882468626806,$,1,117,4.0,Mexican,247 Queen Street W,Toronto,ON,M5V 1Z4
307,AQJPI5rnkb7pBnBMWtSjvw,The Shore Club - Toronto,43.6456057670746,-79.3865740299225,2097.6863734390527,$$$,3,172,4.0,Seafood,155 Wellington Street W,Toronto,ON,M5V 3H1
308,4EHm8WnFG-AbRpK7w6UEvg,You Don Ya,43.6557137988527,-79.3841209246949,1255.1578066234565,NO $,0,41,3.5,Japanese,108 Dundas St W,Toronto,ON,M5G 1C4
309,5N8R7ALESZ30EoAzVJtabw,The Dirty Bird Chicken + Waffles,43.65475,-79.40037,1036.0787381094271,$$,2,292,3.5,Chicken Shop,79 Kensington Avenue,Toronto,ON,M5T 2K2
310,v_xuLfW7TXBsQctpOuPvQw,Magic Noodle,43.66254,-79.40347,634.9060097334627,$$,2,98,3.0,Chinese,93 Harbord Street,Toronto,ON,M5S 1G4
311,AUejVfLtBF_aOFipdT2Rig,Le Swan,43.6452699,-79.4149,2539.2047336917826,NO $,0,14,4.5,French,892 Queen St W,Toronto,ON,M6J 1G3
312,4KPp6fLU8WJHJ63bxSb3Ww,Country Style Hungarian Restaurant,43.66579,-79.409,1108.5501312815466,$$,2,107,3.5,Hungarian,450 Bloor Street W,Toronto,ON,M5S 1X8
313,Ymy91k8r312xvxzC42b5IQ,Top Gun  Burgers,43.65507,-79.40195,1045.6526606878476,$$,2,148,4.0,Burgers,251 Augusta Avenue,Toronto,ON,M5T 2L8
314,cj_9eTPR0JBqk9qt2VmzFw,Hodo Kwaja,43.66438,-79.41557,1600.9693830082463,$,1,194,4.5,Bakeries,656 Bloor Street W,Toronto,ON,M6G 1K9
315,kGOr_D-LNpgZ2M9N8TT4QQ,La Societe - Toronto,43.6688945457707,-79.3925454416842,674.4079212529921,$$$,3,335,3.0,French,131 Bloor Street W,Toronto,ON,M5S 1M4
316,2SyYW8GiDZsqtPb-aCbosg,Noodle King,43.6514,-79.38312,1630.8953855771733,$,1,79,4.0,Chinese,123 Queen Street W,Toronto,ON,M5H 3M9
317,g3q_9vbAc9N3Cu_bjX3DcA,River Tai,43.6630083323837,-79.4026139751077,556.6122966006579,NO $,0,6,4.0,Chinese,92 Harbord Street,Toronto,ON,M5S 1G5
318,fgTeVSSrqqCR1VDWMUgaKw,Koi Koi Saké Bar,43.65499,-79.40054,1007.9999635378476,NO $,0,36,4.0,Bars,170 Baldwin Street,Toronto,ON,M5T 1L8
319,uG0yvj2JWfCf0eaIgxcwXQ,Our Spot,43.6548261,-79.4007684,1024.135956482677,$,1,125,4.0,Breakfast & Brunch,180 Baldwin Street,Toronto,ON,M5T 1L8
320,pfAoH1_m-Wscl-hLjTN5yQ,Omaw,43.64611,-79.41973,2712.0418145687936,NO $,0,18,4.5,Bars,88 Ossington Ave,Toronto,ON,M6J 2Z3
321,K9OzIb-hRY0VdzLij-5LTw,Adelina Russian Restaurant & Bar,43.66058,-79.41495,1568.9235706225159,NO $,0,2,5.0,Bars,538 Manning Avenue,Toronto,ON,M6G 2V9
322,exysqt4RqxkF9I8Z2NEUsQ,King Taps,43.6490336,-79.3818046,1938.703058952717,$$,2,215,4.0,Lounges,100 King Street W,Toronto,ON,M5X 1A9
323,CNPnbJlMmCx08geOvDmH7A,Blu Ristorante,43.6716078104954,-79.388438500464,1095.346903879224,$$$,3,117,4.0,Italian,17 Yorkville Ave,Toronto,ON,M4W 1L1
324,tE88d-oHmNngAZNdD9EHjg,Avenue Open Kitchen,43.647147,-79.3962388,1796.6169388742396,$,1,108,4.5,Diners,7 Camden Street,Toronto,ON,M5V 1V2
325,ydM0qCPG1cTZvAguCi2ucA,Rhum Corner,43.6508775,-79.4131316,1966.3041306469056,$$,2,108,4.0,Caribbean,926 Dundas Street W,Toronto,ON,M6J 1W3
326,EhvluP_Ion-TmdUpk4OgeA,Hot Box Cafe,43.65448,-79.40224,1106.5934171834733,$,1,29,3.5,Sandwiches,204 Augusta Avenue,Toronto,ON,M5T 2L6
327,T4g4k2OhCTsiqcP-ZXElHQ,Jules Bistro,43.64808,-79.39556,1683.395221156322,$$,2,201,4.0,French,147 Spadina Avenue,Toronto,ON,M5V 2L7
328,ZWpwLKv54BB4nkIpBCVulQ,Oriental Delight,43.6592900311425,-79.3831964582205,1099.4653070264815,NO $,0,1,5.0,Chinese,384 Yonge Street,Toronto,ON,M5G 2K2
329,WN3NSIJQHfxtjf1kV7snVA,Kevin's Taiyaki,43.66381,-79.41621,1655.4544071281668,$,1,60,4.5,Specialty Food,675 Bloor Street,Toronto,ON,M6G 4B9
330,LRRhbtaohbXGMdaJ1yZjbQ,Kinoya Sushi Bar,43.64629,-79.38997,1935.7314505799086,NO $,0,24,4.5,Sushi Bars,293 King Street W,Toronto,ON,M5V 1J5
331,O66Zy8Y13VBm72ZDhS4fIg,Sassafraz,43.6702957,-79.3910686,865.0061444100642,$$$,3,346,3.5,French,100 Cumberland Street,Toronto,ON,M5R 1A6
332,JtrBa5-T6QLXv3y5_ACTkg,Doo Roo Ae,43.6639519,-79.4155197,1603.7203397300461,$$,2,62,4.0,Korean,659 Bloor Street  West,Toronto,ON,M6G 1K9
333,3RlylOY452bA8rwliPUeUQ,Miss Korea,43.669074,-79.385948,1015.5942038294279,$$,2,109,3.0,Korean,687 Yonge Street,Toronto,ON,M4Y 2B2
334,v9P-qBwGI7Axt3-RwcjPQQ,Dublin Calling,43.64832,-79.3891,1757.3805795115109,$$$,3,15,4.0,Chicken Wings,250 Adelaide Street West,Toronto,ON,M5H 1X6
335,nBl_4gw5ecGzNkHyzfii8g,Terroni,43.6507999,-79.3756,2120.1156148458667,$$,2,608,3.5,Italian,57A Adelaide Street E,Toronto,ON,M5C 1K6
336,FyAioPDhzS5IP4a4SXeG-Q,Kasa Moto,43.67063,-79.39274,847.0129634247431,$$$,3,197,3.0,Japanese,115 Yorkville Avenue,Toronto,ON,M5R 1C1
337,dg5hk2uYsxrcLs7St66C_A,Mapo Korean BBQ,43.66411,-79.41674,1695.6563401154413,$$,2,28,3.5,Barbeque,680 Bloor St W，Toronto,Toronto,ON,M6G 1L2
338,A-QlS6_vpJI_Yi67AyNJLw,Schmaltz Appetizing,43.67387,-79.41171,1745.836311334042,$$,2,54,4.0,Delis,414 Dupont Street,Toronto,ON,M5R 1V9
339,BTxJv_Ad8bCxYfbC6w3ugA,Banh Mi Ba Le,43.65289,-79.39915,1196.8819683090828,$,1,37,4.0,Vietnamese,538 Dundas Street W,Toronto,ON,M5T 1H3
340,nwB-uvPpPedy57LbQnlQTw,The Hummussiah,43.6572,-79.37832,1546.1672504131284,NO $,0,16,4.5,Middle Eastern,113 Bond Street,Toronto,ON,M5B 1Y2
341,ovlWOSKVjGecnaPuZLv_OQ,Crown Princess Fine Dining,43.66615,-79.38737,756.4458099554386,$$,2,245,3.5,Dim Sum,1033 Bay Street,Toronto,ON,M5S 3A5
342,zeiaHxtK2fTUz_jlPdIKPQ,Aviv Restaurant,43.6745536,-79.4089837,1647.197686627075,$$,2,77,4.0,Mediterranean,328 Dupont Street,Toronto,ON,M5R 1V9
343,tngl2VZ4VGpK3qFpmU0NMw,Scaddabush,43.6449,-79.38549,2179.4243865054286,$$,2,160,3.5,Italian,200 Front Street W,Toronto,ON,M5V 3K2
344,ieour3mPrdGm1cCg1IwN8w,Kiyo,43.680565,-79.4175732,2605.6246088979005,NO $,0,16,5.0,Japanese,1384 Bathurst Street,Toronto,ON,M5R 3J1
345,W9oSegtf7DYNryRWguaUPg,Yonge Street Warehouse,43.6575498937853,-79.3816474825144,1297.729500828695,$,1,62,2.5,Bars,336 Yonge Street,Toronto,ON,M5B 1R8
346,4FE9FM8uvn9CV76Bxfxogw,T&T Roti Trinidad & Toronto Roti,43.6521961365053,-79.4055628112739,1465.2527849166772,$,1,10,4.5,Caribbean,Market 707,Toronto,ON,
347,p1ohbPwI1QfjHQ2zRup5OA,Caffe Di Portici,43.6726242,-79.3885437,1188.3330253060526,$$,2,74,4.0,Italian,6 Scollard Street,Toronto,ON,M5R 1E9
348,gy5pr5bFAjOL5rERSdMCLg,The Keg Steakhouse + Bar - York Street,43.64964,-79.38402,1753.5888181504056,$$$,3,233,4.0,Steakhouses,165 York Street,Toronto,ON,M5H 3R8
349,9GKi6rHN_0FRdcVahyIOXQ,Oyster Boy,43.6452243474777,-79.4143338791601,2505.1046230633274,$$$,3,174,4.0,Seafood,872 Queen Street W,Toronto,ON,M6J 1G3
350,ZdaZwXC0FByDY3EwNELphw,Union,43.64577,-79.41974,2729.0691777067022,$$$,3,209,4.0,French,72A Ossington Avenue,Toronto,ON,M6J 2Y7
351,15SZ_CzigAyVUbsijFFQJg,Sushi Box,43.66306,-79.38631,754.6602793282244,$$,2,36,4.0,Japanese,891 Bay Street,Toronto,ON,M5S 3K5
352,pSMK_FtULKiU-iuh7SMKwg,Blaze Fast-Fire'd Pizza,43.6565313336776,-79.3800427473602,1466.2193409419372,$$,2,463,4.5,Pizza,10 Dundas Street East,Toronto,ON,M5B 2G9
353,ocLnCE2E29j-CoBQj1yaSA,Cafe Landwer,43.64875,-79.38491,1824.8692776213015,$$,2,106,4.0,Cafes,165 University Avenue,Toronto,ON,M5H 3B8
354,td9FZybutwNG7DgocHCiXA,Lai Wah Heen,43.6546713,-79.386172,1226.1960928252895,$$$,3,195,3.5,Dim Sum,108 Chestnut Street,Toronto,ON,M5G 1R3
355,aIBvcOjkAURJJ-UH0G-s0g,Bitondo's Pizzeria,43.65414,-79.4132,1735.4432412803553,$,1,135,4.0,Pizza,11 Clinton Street,Toronto,ON,M6J 2N7
356,nJBwEYaulNXHPAUP0OBRtg,FIKA,43.6535844,-79.4004303,1142.789996275604,$,1,169,4.0,Coffee & Tea,28 Kensington Avenue,Toronto,ON,M5T 2J9
357,OFAiA6En2HD0CqLkFDCNpg,The Host,43.66991,-79.39578,752.7933477412332,$$,2,106,3.5,Indian,14 Prince Arthur Avenue,Toronto,ON,M5R 1A9
358,GQSmxqRi_s9U9qd5gHLKAw,Duke's Refresher + Bar,43.6590440287003,-79.3830707246871,1119.9471778437305,$$,2,171,4.0,Burgers,382 Yonge Street,Toronto,ON,M5B 1S8
359,QFPS9JBNdOOHVP0C3pSslw,Earls Kitchen + Bar,43.6480134620711,-79.3839246431072,1943.8112254979944,$$,2,388,3.5,Canadian (New),150 King Street West,Toronto,ON,V5H 1J9
360,Iu-I5LHQ4cDuPnG64gC_vA,WVRST Union Station,43.64552,-79.38031,2345.5285422682027,NO $,0,18,4.0,Beer Bar,65 Front Street West,Toronto,ON,M5J 1E6
361,I19KjkRDk4oJ8J2a9Ur2FA,Gordo EX Cafe,43.6722312,-79.4143193,1798.13880503683,$$,2,31,4.0,Venezuelan,1048 Bathurst Street,Toronto,ON,M5R 3G7
362,yQS7bWaBhhGZJ1zeXku4yA,Imm Thai Kitchen,43.65484,-79.41598,1879.9548424297484,$$,2,60,4.5,Thai,651 College Street,Toronto,ON,M6G 1B7
363,Ijh1AcbH-F3CyhYT_5qL8Q,Indian Grill,43.64656,-79.41988,2691.4966352446195,$$,2,69,4.0,Indian,108 Ossington Avenue,Toronto,ON,M6J 2Z4
364,iAe3gkuK7SXVay9T5D4OFw,Ramen Isshin,43.65035,-79.38378,1727.1792559226687,$$,2,56,4.0,Ramen,111 Richmond Street W,Toronto,ON,M5H 3K6
365,KT2E2HQtb0HA0zsjbVp2BQ,STK Toronto,43.6704296,-79.3937833,798.9112313678223,$$$$,4,133,3.0,Steakhouses,153 Yorkville Avenue,Toronto,ON,M5R 1C4
366,bYGn37k0KgleABKMWgjnMw,El Furniture Warehouse - Bloor St,43.6659060524241,-79.4080606117255,1036.0360361992875,$,1,296,3.0,American (Traditional),410 Bloor St West,Toronto,ON,M5S 1X5
367,qQPJ9aTyVa9DGWiLi97g5g,Crepe TO,43.6500840012792,-79.374513477087,2249.015145769695,$$,2,74,4.5,Creperies,52 Church Street,Toronto,ON,M5C 3C8
368,mCNzKFTukMYHkZVRMXIIyw,Sushi On Bloor,43.6653499,-79.40913,1104.0836470578308,$$,2,136,4.0,Sushi Bars,525 Bloor Street W,Toronto,ON,M5S 1Y4
369,zzH3E5DA8eMzFwv2k5izyw,Kensington Sushi Market,43.656036,-79.402388,968.119256437403,NO $,0,13,4.0,Sushi Bars,281 Augusta Avenue,Toronto,ON,M5T 2M1
370,az3kw3vPJmNRS8FYJK2-Ng,Cookie Martinez,43.6514248,-79.4041234,1481.6909227701601,$,1,19,4.5,Colombian,707 Dundas Street W,Toronto,ON,M5T 2W6
371,Rh2smrKvcamnP8VBUgMI0Q,Dim Sum King Seafood Restaurant,43.653324,-79.395372,1106.972044656529,$$,2,233,3.0,Dim Sum,421 Dundas St W,Toronto,ON,M5T 1G6
372,xmSQ5Md_XNzPmSRkilo_2A,Salus Fresh Foods,43.66115,-79.38159,1156.6025866289945,$,1,56,5.0,Salad,25 Carlton Street,Toronto,ON,M5B 1L4
373,UXHlrjrt72KLojnXZsz7gw,Höm Cafe,43.6703244641439,-79.3906142286939,884.2109198352443,$$,2,23,4.0,Cafes,95 Cumberland Street,Toronto,ON,M5R 3N7
374,dA2lVg79LtB5kMyx3dIANg,AAamazing Salad,43.6550092447622,-79.3997564536626,975.3452095550355,$$,2,28,4.0,Salad,160 Baldwin Street,Toronto,ON,M5T 3K7
375,7DiGCzG9-Om3trB5iJYcjw,Kim Vietnamese Restaurant,43.65285,-79.39939,1205.0302190677842,$,1,42,4.0,Vietnamese,546 Dundas Street W,Toronto,ON,M5T 1H3
376,JEXasd9XUHFbt_fIdmdK8g,Restaurant La Banane,43.64904,-79.4203,2532.1256127446563,$$$$,4,107,4.0,French,227 Ossington Avenue,Toronto,ON,M6J 2Z8
377,HkHTdTvzbn-bmeQv_-2u0Q,Bannock,43.65177,-79.3810699,1768.1006830845927,$$,2,508,3.5,Canadian (New),401 Bay Street,Toronto,ON,M5H 2Y4
378,OA1o0ixPWw-maEq2CF1Qag,Kiin,43.647622,-79.3921,1764.667842623138,$$$,3,168,4.0,Thai,326 Adelaide Street W,Toronto,ON,M5V 1R3
379,Dpl8d6eXq-YnF5zEV1cwMw,Poop Cafe,43.66391,-79.41767,1767.6241403798736,$$,2,199,2.5,Desserts,706 Bloor Street W,Toronto,ON,M6G 1L4
380,kaW97gZXyGMdkedZNdQuew,Harbord House,43.6625,-79.40545,791.3650235382725,$$,2,105,3.5,Pubs,150 Harbord Street,Toronto,ON,M5S 1H2
381,7xHhVn27WxjdPNsfLYQz5w,Omg Oh My Gyro,43.6501,-79.39091,1524.7192539171267,$,1,88,4.0,Halal,155 John Street,Toronto,ON,M5V 2Z5
382,lI4azrL2urejaJJX-uJ1-A,ChiChop,43.65872,-79.38214,1191.2693459211407,$$,2,35,3.5,Taiwanese,372 Yonge Street,Toronto,ON,M5G 2K9
383,zKZc8GwCaKbACaV0HZAmpg,Parka Food Co,43.64859,-79.39814,1655.1724029301765,$$,2,47,4.5,Comfort Food,424 Queen Street W,Toronto,ON,M5V 2A7
384,W2NzlS8OJzGfDfr9oRz11Q,Drake One Fifty,43.6493542,-79.3846843,1783.9506253336567,$$$,3,222,3.5,Cocktail Bars,150 York Street,Toronto,ON,M5H 3S5
385,9ooTxMSL0xe1b0RvwTyDgg,Coffee Oysters Champagne,43.64757,-79.38684,1888.9328840760074,NO $,0,24,4.0,Champagne Bars,214 King Street W,Toronto,ON,M5H 3S6
386,QMj3DbUwntH6bTRN6PJ-HA,Nando's,43.64642,-79.40741,2087.713180616376,$$,2,49,3.5,Portuguese,741 Queen Street W,Toronto,ON,M6J 1G1
387,zgQHtqX0gqMw1nlBZl2VnQ,Momofuku Noodle Bar,43.649678,-79.386275,1691.6772159845277,$$,2,943,3.0,Ramen,190 University Avenue,Toronto,ON,M5H 0A3
388,_l3nxDFpmLUMxCQrz1LfBQ,Early Bird Coffee & Kitchen,43.64729,-79.40246,1864.8230076302632,$$,2,225,4.0,Breakfast & Brunch,613 Queen Street W,Toronto,ON,M5V 2B7
389,j76FtDF70w93QKrcnT9AMA,Matahari Grill,43.65582,-79.39355,838.9426908811802,$$,2,71,3.0,Malaysian,39 Baldwin St,Toronto,ON,M5T 1L1
390,3biAdoMqbR3E2tHikgd2kQ,AMA,43.6450416882219,-79.4161209091544,2609.4320457888452,$$,2,37,4.0,Argentine,930 Queen Street W,Toronto,ON,M6J 1G6
391,CJKgffwOSqZ7WpKVruA0xQ,Flock Rotisserie + Greens,43.662574,-79.403622,641.6716364927537,$$,2,55,3.5,Canadian (New),97 Harbord Street,Toronto,ON,M5S 1G6
392,ftvZ6BVmbZndKcVPEdakIQ,Arepa Café,43.6479538470928,-79.4008710352267,1753.7535382431508,$$,2,251,4.0,Venezuelan,490 Queen Street W,Toronto,ON,M5V 2B3
393,c_FTil8s5PS2l_YJDQAXhA,Hogtown Pub & Oysters,43.65482,-79.41497,1815.284739028263,$$,2,54,4.0,Pubs,633 College Street W,Toronto,ON,M6G 3A7
394,2Y-28XrkMeeA4FFvv_73tw,Darvish Restaurant,43.66337,-79.38412,936.6662742519235,$$,2,86,3.5,Persian/Iranian,508 Yonge Street,Toronto,ON,M4Y 1X9
395,Gzt3H_y_kuoIJkV-2EY-RA,Hokkaido Ramen Santouka,43.66539,-79.40882,1087.6673902614334,NO $,0,24,4.0,Ramen,515 Bloor Street W,Toronto,ON,M5S 1Y4
396,sJSRXg48n9MnkGaPjmPmZw,Pi,43.649382168878,-79.3745389580727,2299.166271182041,NO $,0,4,4.5,Pizza,60 Colborne Street,Toronto,ON,M5E 0B7
397,epb_jKqFvo34MoozEM3Qsg,Roti Cuisine of India,43.67479,-79.40836,1636.026114733415,$$,2,94,4.0,Indian,308 Dupont Street,Toronto,ON,M5R 1W1
398,N8jmyJCk-LjO9o1K9UjxNA,Harlem Underground,43.6464195,-79.4070969,2086.481996073266,$$,2,201,3.5,Cajun/Creole,745 Queen Street W,Toronto,ON,M6J 1G1
399,WRj8rLeJpU49wqU9EmZLEg,Fancy Franks,43.65767,-79.40268,839.4269505223211,$$,2,109,3.5,Hot Dogs,326 College Street,Toronto,ON,M5T 1S3
400,EY4xsGDe0euyusOfAb3Cwg,The Fresh Italian Eatery,43.6542188963991,-79.3907314538956,1083.681838114679,$,1,17,4.0,Italian,42-109 McCaul Street,Toronto,ON,M5T 2W7
401,Eoj4-cffvbIQxLTO-C_K0g,Osgoode Hall Restaurant,43.652187,-79.385138,1497.6714850593012,$$$,3,24,4.5,Canadian (New),130 Queen Street W,Toronto,ON,M5H 2N6
402,7N4_jIwfNZr48OGTjwqF-w,Atlas,43.6771569338265,-79.3984616868715,1559.3015281362868,$$$$,4,18,4.0,Moroccan,18 Dupont Street,Toronto,ON,M5R 1V2
403,tK05tv0fKQkhYev9vuHEKg,Corner By Spoon And Fork,43.6715255,-79.3945958,921.585876355385,$,1,7,4.0,Thai,55 Avenue Road,Toronto,ON,M5R 3L2
404,WD2lLI59TpoTQRg4QFNSbg,Gdous Juicy Chicken House,43.6510267,-79.3969914,1366.0272355601408,$,1,48,3.5,Chicken Wings,223 Spadina Avenue,Toronto,ON,M5T 2E2
405,xOpwBftxwEgKYHVrjFi2Mw,Hua Jia Rice Noodle,43.6657330000122,-79.4077175483108,1004.1897867328673,NO $,0,7,4.5,Seafood,487 Bloor St W,Toronto,ON,M5S 1Y2
406,OllK5_S-7svgSwbUfx1xYA,King's Noodle Restaurant,43.6531,-79.3985,1153.8204532365096,$$,2,392,3.5,Chinese,296 Spadina Avenue,Toronto,ON,M5T 2E7
407,wnRM4PgCFRZjQp8tUOUKEQ,Big Trouble Pizza,43.6513281156574,-79.397037869296,1332.9058956639908,$$,2,34,5.0,Pizza,235 Spadina Avenue,Toronto,ON,M5T 2E2
408,ZUJL4EBj7bBYYIQn8J6EVw,Schnitzel Queen,43.6541,-79.37043,2265.809970237888,$$,2,86,4.5,German,211 Queen Street E,Toronto,ON,M5A 1S5
409,iq5tRMXpyiR5s-BzQ-mpWQ,The Vegan Extremist,43.65632,-79.4024,950.024967083242,NO $,0,3,5.0,Vegan,291 Augusta Ave,Toronto,ON,M5T 1N9
410,8VHLeEC7kH6nwn1HnqwMKQ,Dang Good BBQ,43.6617164611816,-79.3908462524414,511.1955222134818,$,1,1,5.0,Food Trucks,,Toronto,ON,M7A
411,UWupVhvb1qWZh8rNowJliQ,Woods Restaurant & Bar,43.6489963,-79.3750324,2299.3462153242654,$$$,3,75,4.0,Canadian (New),45 Colborne Street,Toronto,ON,M5E 1E3
412,sRirP65Q7BSg3Lj9FdkKWQ,Gandhi Cuisine,43.64767,-79.40316,1851.201145403899,$$,2,256,4.0,Indian,554 Queen Street  W,Toronto,ON,M5V 1V2
413,rhyjGfqYlCJoi8Zeulg6QA,Kimchi Korea House,43.65515,-79.38539,1213.414900882719,$$,2,239,3.5,Korean,149 Dundas Street W,Toronto,ON,M5G 1C6
414,ACBFbEW6oa58_RyX9Op-qQ,Seoulicious,43.6653499,-79.38502,885.7609205311503,$$,2,54,3.5,Korean,590 Yonge Street,Toronto,ON,M4Y 1Z3
415,X6ZZksefmR_piQj2Gbnduw,Paldo Gangsan,43.664,-79.41743,1751.761320287128,$,1,67,4.0,Korean,694 Bloor Street  W,Toronto,ON,M6G 1L4
416,D4ETxxeNQEnSw_e1H46DXQ,Monga Fried Chicken,43.6676705557352,-79.3858549810029,930.8008220671492,$$,2,89,3.5,Taiwanese,692 Yonge Street,Toronto,ON,M4Y 2A6
417,VFLf1AnhM_QMnnjZjsVO7Q,Provo FoodBar,43.65445,-79.39178,1032.6703154889353,$$,2,49,3.5,Tapas/Small Plates,308 Dundas Street W,Toronto,ON,M5T 1G4
418,TL4KaVKtHJfDeHrAjUFdeQ,Mi'hito Sushi Laboratory,43.6572,-79.38144,1326.0291376126504,$$,2,53,4.0,Sushi Bars,4 Edward Street,Toronto,ON,M5G 1C9
419,FJ4qHGbf_M8pDplD7N-spA,Sorelle and Co,43.6702401,-79.3945423,779.9532552757335,$$,2,50,3.5,Cafes,161 Yorkville Avenue,Toronto,ON,M5R 1C4
420,TKKX9bllRBMzp0NYr441PQ,Mi'Hito Sushi Laboratory,43.65753,-79.40085,754.3845034942797,$$,2,47,4.0,Japanese,285 College Street,Toronto,ON,M5T 1S2
421,nEAd-6fW8F2GRjuNY8TPqQ,Jugemu,43.66343,-79.37062,2012.5047550986264,NO $,0,37,4.0,Sushi Bars,193 Carlton St,Toronto,ON,M5A 2K7
422,orrhJxM6V1USwccG7MlxmA,Light Cafe,43.65594,-79.393,840.7232306205099,$$,2,175,3.5,Cafes,23 Baldwin Street,Toronto,ON,M5T 1L1
423,XD0LjNuPPwJPsTAHecUh7A,Terroni,43.6800112830789,-79.3905191478574,1906.9954777167416,$$$,3,245,3.0,Italian,1095 Yonge Street,Toronto,ON,M4W 2L8
424,oS0CnUbyv0GUoD3L8_3UPQ,Thai Fantasy,43.66513,-79.38488,900.0375207223952,$$,2,125,4.0,Thai,578 Yonge Street,Toronto,ON,M4Y 1Z3
425,li0sU2BBM6P8B5u5-RRCMA,Hidden Burger,43.6465208,-79.3778797,2351.0854120925474,$$,2,47,4.0,Burgers,22 Front Street W,Toronto,ON,M5J 1C4
426,3nCK-90bwHpXMzeHJUi-Sw,Chicken Idol,43.66315,-79.37515,1652.3545823511886,$,1,11,4.5,Middle Eastern,140 Carlton Street,Toronto,ON,M5A 3W7
427,T_Vjy4_Z-F0mFQMLRHDTrQ,Jerk King,43.6654396,-79.4108124,1192.8072173869646,$,1,56,3.5,Caribbean,522 Bloor Street W,Toronto,ON,M6G 1K1
428,2H5EaBEreDzzP7sPmD_oDQ,Churrasqueira Vila Verde Restaurant,43.65117,-79.41061,1797.8564279017548,$$,2,13,4.0,Portuguese,869 Dundas Street W,Toronto,ON,M6J 1V6
429,js9rQZAlA5rr7oSBRRcCDw,Dimmi Bar & Trattoria,43.67017,-79.3927,796.2841185310247,$$,2,176,3.5,Italian,140 Cumberland St,Toronto,ON,M5R 1A8
430,q7MorRPzU_J-iekeDKUKgw,Reposado Bar & Lounge,43.64729,-79.42012,2651.2687627352198,$$,2,128,4.0,Tapas/Small Plates,136 Ossington Avenue,Toronto,ON,M6J 2Z5
431,d8Kz48UDfZ0MPuQpGy2r0Q,Kost,43.64541,-79.3923,2016.7972636586928,$$$,3,115,3.5,Mexican,80 Blue Jays Way,Toronto,ON,M5V 2G3
432,UN0UwUh7jaeX6Jg3lZImCg,Holy Chuck,43.6652110376605,-79.3849245511463,893.3883057141436,$$,2,71,3.5,Burgers,586 Yonge Street,Toronto,ON,M4Y 1Z3
433,l_uAw0K2lkOsyVJATcnwsA,Spicy Mafia,43.65881,-79.39419,508.2417373264617,$$,2,12,3.0,Chinese,181 College Street,Toronto,ON,M5T 1P7
434,tJcpzXzykNSLuzWwa1JQUw,Queen St Warehouse,43.65033,-79.39018,1521.9993796223,$,1,348,3.0,Bars,232 Queen St,Toronto,ON,M5V 1Z6
435,D5oLn4j7eezCAoOsuYr8jA,ND Sushi & Grill,43.65735,-79.40465,983.9581105357279,$$,2,29,4.0,Sushi Bars,370 College St,Toronto,ON,M5T 1S6
436,DBmpoOJubrYfyIpswyql7w,Kobi Korean Restaurant,43.6681878598966,-79.38620287925,939.3342194806112,$$,2,20,3.0,Korean,710 Yonge St,Toronto,ON,M4Y 2B3
437,4_EgrMY-EI-i-xyWixI2qg,Mystic Muffin,43.652457948594,-79.372548881465,2217.4339803700595,$,1,249,4.5,Sandwiches,113 Jarvis Street,Toronto,ON,M5C 2H4
438,T7yKffTuhiIZclsgjfgowA,Pizzeria Via Mercanti,43.65408,-79.402,1137.2646753484858,$$,2,209,4.0,Pizza,188 Augusta Avenue,Toronto,ON,M5T 1M1
439,dd3GZs6zW2t7BM0cbxAzvg,La Palette,43.64797,-79.40098,1754.5151479965402,$$$,3,219,4.0,French,492 Queen Street W,Toronto,ON,M5V 2B3
440,sKrt4CMGyG8YAjxVkk4hPQ,Fusaro's Kitchen,43.64808,-79.39556,1683.395221156322,$$,2,123,4.0,Italian,147 Spadina Avenue,Toronto,ON,M5V 2L7
441,_XV7rJ-RZ7LvJXesGkYlDQ,MaMa Chef Korean Restaurant,43.66444,-79.41534,1585.570614461786,$$,2,52,4.0,Korean,648 Bloor Street W,Toronto,ON,M6G 1K9
442,e178giuAicIhb16ymOtiBg,R&D Restaurant,43.65152,-79.39703,1315.594642068116,$$$,3,231,3.5,Asian Fusion,241 Spadina Avenue,Toronto,ON,M5T 2E2
443,9ET_RUNztevq4_OLAX80Gg,Café Boulud,43.6719213,-79.388922,1105.2792256036253,$$$$,4,242,3.5,Cafes,60 Yorkville Avenue,Toronto,ON,M4W 0A4
444,fC8wkwh1fOJ5CKga5ChsFQ,Taste Of Ramen,43.6632523674851,-79.3956711346823,3.770115126259753,NO $,0,1,3.0,Japanese,,University,ON,
445,imDp2s4TANwV39FfYXTAEA,Bar Sybanne,43.64913,-79.42028,2545.288876260962,$$$,3,72,4.5,Mediterranean,229 Ossington Avenue,Toronto,ON,M6J 2Z8
446,lVVJMvqu4LXL5rBqjO6eqg,Tofu Village - House of Soon Tofu,43.66371,-79.4165699,1687.5431055888778,$$,2,184,4.0,Korean,681 Bloor Street W,Toronto,ON,M6G 4B9
447,bLtC8xJXkd1b6MT0KjnSvw,The Captain's Boil,43.66237,-79.38378,968.3527151314383,$$,2,205,3.5,Seafood,476 Yonge St,Toronto,ON,M4Y 1X5
448,Sp8dpnVOh0SG4_4A3IOT_w,Golden Patty,43.6545599,-79.40107,1064.0300746512023,$,1,84,4.0,Caribbean,187 Baldwin Street,Toronto,ON,M5T 1M1
449,u6JJojkbqVlVI4NqKsL54Q,DOMA,43.65547,-79.4141,1716.7836693011411,$$$,3,57,4.0,Korean,50C Clinton Street,Toronto,ON,M6G 2Y3
450,U3A716YhAWFkyURKcfUo7A,Cosmic Treats,43.65401,-79.40148,1124.9499000479702,$$,2,104,4.0,Ice Cream & Frozen Yogurt,207 Augusta Avenue,Toronto,ON,M5T 2L4
451,hlrZHM4D48XiQtXh6cRg_w,The Old Spaghetti Factory,43.6469106,-79.3743409,2503.102114906253,$$,2,306,3.0,Italian,54 The Esplanade,Toronto,ON,M5E 1A6
452,8Q_pczH1uBghV495-Ba6WA,Resto Boemo,43.65035,-79.38378,1727.1792559226687,NO $,0,42,4.0,Comfort Food,111 Richmond Street W,Toronto,ON,M5H 3K6
453,m_5-Klux3KcRQVo1EOtcig,Evoo Ristorante,43.67441,-79.39672,1246.4466603223107,$$$$,4,29,4.5,Wine Bars,138 Avenue Road,Toronto,ON,M5R 2H6
454,MmwKWBBrR0NF05hGBxnWjA,Veda Healthy IndianTakeout,43.66002,-79.39467,369.8128865555707,$,1,22,3.0,Indian,Sandford Fleming Building,Toronto,ON,M5S
455,SOkat3uLjX__3-tCowhlHg,Rudy,43.65489,-79.41474,1796.1598567811968,$$,2,116,4.0,Burgers,619 College Street,Toronto,ON,M5V 2C5
456,ctTiEiUTY_FvnZ0ovBeZWQ,Ho Ga Oriental Cuisine,43.64768,-79.38294,2015.077379814032,$,1,24,4.0,Asian Fusion,121 King Street W,Toronto,ON,M5H 3T9
457,1I3PnP5FSkur8AXp6izLOw,The Dime,43.6476526616345,-79.4026391208172,1824.658181988062,$,1,60,4.0,Bars,538 Queen Street West,Toronto,ON,M5V 2B5
458,C9QVknXuoDBdR9CBa_Flyw,Saffron Spice Kitchen,43.6485506,-79.3972173,1641.9445835116535,$,1,108,4.0,Indian,459 Queen Street W,Toronto,ON,M5V 2A9
459,xL9EhlYVMSe2mdkisYjXog,The Halal Guys,43.66524,-79.38453,923.4940713229979,$$,2,238,3.0,Middle Eastern,563 Yonge Street,Toronto,ON,M4Y 1Z2
460,mH_T6JbQkGdWcL0htKvNxA,Uncle Tony's,43.6486015,-79.3749695,2338.262075222072,$$,2,63,4.0,Italian,38 Wellington Street E,Toronto,ON,M5E 1C7
461,GhVfSRnwSLVyP9BF9hT4ig,Tanto,43.64581,-79.4197499,2742.776929994903,$$$,3,27,3.5,Argentine,74 Ossington Avenue,Toronto,ON,M6J 2Y7
462,5TmlKXI6YoE8Y6wKDd7JSA,Pimentas Grill,43.65516,-79.41602,1869.6509310133513,NO $,0,5,4.5,Portuguese,648 College Street,Toronto,ON,M6G 1B8
463,LmIGu7WPby4lm8MpELlOMw,Salad Days,43.6704,-79.38719,1049.265681209522,$,1,119,4.5,Food Stands,Cumberland Terrace,Toronto,ON,M4W 1A1
464,s7Pj1mNYqRTGNOXLOiBafw,Figo,43.6476795733413,-79.3904332696055,1785.3703251817017,$$$,3,222,3.5,Italian,295 Adelaide St W,Toronto,ON,M5V 1P7
465,Q4RSmF0s-AkaegrLFCLEbg,Donatello Restaurant,43.657425,-79.383474,1179.5252838118142,$$$,3,142,4.0,Italian,37 Elm Street,Toronto,ON,M5G 1H1
466,3bvTPnnru-6ub40R30NGZA,ImPerfect Fresh Eats,43.64772,-79.39193,1754.8953973652758,NO $,0,23,4.5,Salad,318 Adelaide Street W,Toronto,ON,M5V 1R2
467,i7_JPit-2kAbtRTLkic2jA,John & Sons Oyster House,43.6504156,-79.3817483,1818.1202109999017,$$$,3,92,4.0,Seafood,56 Temperance Street,Toronto,ON,M5H
468,xsFJZu4nME615byZVrpMGA,Nespresso Boutique Bar,43.6697469,-79.3934129,742.7229685764299,$$,2,52,4.0,French,159 Cumberland Street,Toronto,ON,M5R 1A2
469,IfUkm42SB9D0m_ZbkQ711A,The Fish Store & Sandwiches,43.65491,-79.41627,1900.5171273689095,$,1,138,4.0,Sandwiches,657 College Street,Toronto,ON,M6G 1B7
470,q2f9sfgxdZKPwRKjcd3LDw,Bocconcini Toronto,43.6603,-79.37748,1503.9230939107042,NO $,0,19,4.5,Pizza,96 Gerrard Street E,Toronto,ON,M5B 1G7
471,68PJJkcq_i0SlLqO6t7Qxw,Asian Legend,43.65385,-79.39515,1055.4804983430863,$$,2,221,3.5,Dim Sum,418 Dundas Street W,Toronto,ON,M5T 1G7
472,Cp3YRVZojrCGeQS41Hf1pw,Pho Hung,43.65444,-79.39899,1017.2429051041931,$,1,434,3.0,Vietnamese,350 Spadina Avenue,Toronto,ON,M5T 2G4
473,9HWdRtNS0q4_UkEvL14IfA,Pho Pasteur,43.65248,-79.39892,1220.9534835402574,$$,2,190,3.5,Vietnamese,525 Dundas Street W,Toronto,ON,M5T 1H4
474,WF067eOghIq5_TXrcEPTFw,Pat's Homestyle Jamaican Restaurant,43.64753,-79.4032,1849.7085648156535,$,1,78,3.5,Caribbean,558 Queen Street W,Toronto,ON,M5V 2B5
475,A6bnXx1see4yZSaVVCVDyw,Rolltation,43.65477,-79.3874,1154.9664216342119,$$,2,193,4.0,Sushi Bars,207 Dundas Street W,Toronto,ON,M5G 1C8
476,zb61eT_ChYctlCXcIqlW6Q,Me Va Me Kitchen Express,43.6501486152902,-79.3906454023211,1515.4068756931474,$$,2,160,4.0,Mediterranean,240 Queen Street W,Toronto,ON,M5V 1Z7
477,pwtTn72x7Nqp1imaXw9LvQ,Mercatto,43.6598,-79.38875,677.9544631145657,$$,2,75,3.5,Italian,101 College Street,Toronto,ON,M5G 1L7
478,L57aWr6nxsIXE5wB-7uDag,Hakata Shoryuken,43.6504277578834,-79.3880653381348,1555.2584524337733,NO $,0,2,4.0,Ramen,225 Queen Street W,Toronto,ON,M5V 1Z4
479,xqKmybMBBnbH0jPxcaqw0A,After Dark,43.64569,-79.4104,2283.082373611673,NO $,0,3,4.5,Asian Fusion,859 Queen St W,Toronto,ON,M6J 1G5
480,KS_d3F_eIA6iTo6Wtj2O_w,Smoke's Poutinerie,43.64859,-79.38777,1757.6423609919723,$,1,288,3.5,Fast Food,218 Adelaide Street W,Toronto,ON,M5H 1W7
481,34OwRFftkT7t3iBquazJcg,Avocado Sushi,43.6677895,-79.3883896,767.600531808022,$$,2,47,4.0,Japanese,1105 Bay Street,Toronto,ON,M5S 2B3
482,8I5U8OQ06nSxX2y4PPOWzQ,Japango,43.6551,-79.38524,1238.7080574122144,$$,2,650,3.5,Sushi Bars,122 Elizabeth Street,Toronto,ON,M5G 1P5
483,t6FCO31z5uYrCM26jCaIaA,The Chase Fish & Oyster,43.65111,-79.37947,1891.1325104401985,$$$,3,357,3.5,Seafood,10 Temperance Street,Toronto,ON,M5H 1Y4
484,5WJOM9DefIvLOIrntDIv-A,TrueTrue,43.6503484,-79.3713047,2432.9889227465865,$$,2,127,4.0,Pizza,169 King Street E,Toronto,ON,M5R 1J4
485,Okj0YwamsE5mwsfFkQk_jw,Scollard Variety & Deli,43.6716977,-79.3921869,978.2157306949458,$$,2,23,4.5,Diners,105 Scollard Street,Toronto,ON,M5R 1G4
486,4DLsC4BTUoEqFGusetQVlQ,La Carnita,43.6475853662168,-79.3903893378564,1796.385681972978,$$,2,334,3.5,Mexican,106 John Street,Toronto,ON,M5H 1X9
487,1FL3oE2mqq_EFAYPd1TWUg,Meet Dumplings,43.668,-79.38544,960.7090985989398,$,1,133,3.0,Chinese,649 Yonge Street,Toronto,ON,M4Y 1Z9
488,aHQOfN-PRlx_4dnJ6fPZXA,Patties Express,43.6578559,-79.381882,1264.7575858974342,$,1,122,4.0,Bakeries,4 Elm Street,Toronto,ON,M5G 1G7
489,_PqvLxLW1uZJlJZzGMWErQ,Bubble Republic on Bay,43.65691,-79.3837999,1192.5723267795238,$,1,55,4.0,Taiwanese,637B Bay Street,Toronto,ON,M5G 1M7
490,dulgBrNtDCGjYcbQa2E6uA,Michael's on Simcoe,43.6481895,-79.3867188,1833.9504062789629,$$$$,4,131,4.0,Steakhouses,100 Simcoe Street,Toronto,ON,M5H 3T4
491,ClnWjgG9IMP7EPEu9lPsTg,The Dirty Bird Chicken + Waffles,43.66531,-79.40928,1117.5829405524576,$$,2,64,3.5,Waffles,527 Bloor Street W,Toronto,ON,M5S 1Y5
492,dr3TyPA3uztzD3y_aa_mhQ,The Walton,43.65497,-79.41432,1758.7930314182347,$$,2,37,4.5,Cocktail Bars,607 College Street,Toronto,ON,M6G 1B5
493,eQel7bUz75j0AVKnfsillg,Korean Grill House,43.65051,-79.38934,1502.7922991537127,$$,2,250,3.5,Korean,214 Queen Street W,Toronto,ON,M5V 1Z2
494,ghaj1MZzPW1qXYCZWfoTTw,Live Organic Food Bar,43.67518,-79.40673,1588.6338577747633,$$,2,195,4.0,Live/Raw Food,264 Dupont Street,Toronto,ON,M5R 1V7
495,e6UDJBEIoXBbnXtdwkqIGA,Hot-Star,43.65878,-79.38217,1191.1913730696986,$$,2,248,3.5,Chicken Wings,374A Yonge Street,Toronto,ON,M5B 1S6
496,BUcTdN-rNE8urCCQuxSOQA,Mother's Dumplings,43.65711,-79.39934,744.2910490673393,$$,2,499,3.5,Chinese,421 Spadina Avenue,Toronto,ON,M5T 2A8
497,DKZN5IjHEE_BCDCRLxb7sQ,Mykonos Mediterranean Grill,43.67436,-79.38799,1373.3452080281643,$$,2,86,4.0,Greek,881 Yonge Street,Toronto,ON,M4W 2H2
498,bPq5Hu-kNhzUVE6H_vywyg,Bread & Bowl,43.6562796349288,-79.3906696121643,877.104783464794,$$,2,32,4.0,Sandwiches,2 Murray Street,Toronto,ON,M5G 1X5
499,9NMKFyr3Cw5wt_mlqv3U1g,JINYA Ramen Bar,43.66178,-79.37889,1346.1215613913935,$$,2,203,3.5,Ramen,399 Church Street,Toronto,ON,M5B 2A1
500,yrfDrqPnbJMIzmpAavWm5A,McEwan,43.67008,-79.38636,1068.089207928445,NO $,0,16,3.5,Grocery,1 Bloor Street East,Toronto,ON,M4W 1A9
501,VvSmE1NnTjnaTPHT0WrCaQ,King's Café,43.65421,-79.4021099,1130.4540582355198,$$,2,133,4.0,Chinese,192 Augusta Avenue,Toronto,ON,M5T 2L6
502,3cAy1gxlprn1ue0q3L_ziw,Lee Chen Asian Bistro,43.672372,-79.387436,1210.4513062982808,$$,2,154,3.5,Dim Sum,813 Yonge Street,Toronto,ON,M4W 2G9
503,H29EzY81QdRYNY4hEKWGcQ,Ooshee Mediterranean Oven,43.66848,-79.38678,921.3422714310146,NO $,0,3,5.0,Lebanese,9 Charles Street W,Toronto,ON,M4Y 1R4
504,ErnZ6XLbX3aG9jz3OcyzLg,STAY Cafeteria,43.6554583,-79.3991664,912.850379169048,$,1,128,3.5,Asian Fusion,388 Spadina Avenue,Toronto,ON,M5T 2G5
505,ZE6zl8etiSMrPubDF_iLeg,Sumac Kebab Kitchen,43.65423,-79.39096,1068.9710098797784,$$,2,67,3.5,Persian/Iranian,287 Dundas Street W,Toronto,ON,M5G
506,Bo53nDtkmu0gAWraONir1A,L'espresso Bar Mercurio,43.6676445409309,-79.4005929661036,624.9430875833714,$$,2,134,3.0,Coffee & Tea,321 Bloor Street W,Toronto,ON,M5S 1S5
507,C6vH0qzmcerMkiJy3VO9qA,Estiatorio VOLOS,43.65016,-79.38477,1708.589592137492,$$$,3,294,4.0,Seafood,133 Richmond St W,Toronto,ON,M5H 2L3
508,bAdlbqHs4ayJxOXOUFQDyw,Nami Restaurant,43.650977509378,-79.3754126895,2129.554240260509,$$$,3,148,4.0,Japanese,55 Adelaide Street E,Toronto,ON,M5C 1K6
509,fRu_POqPowUo6nHSRMjOPw,Victor,43.645905,-79.391166,1965.8068107619945,$$$,3,56,4.0,American (Traditional),30 Mercer St,Toronto,ON,M5V
510,KBUjHejDR4Ttsx8TcqWENQ,Imonay House Restaurant,43.6641195,-79.4158477,1623.0244625259168,$$,2,70,4.0,Korean,665 Bloor Street W,Toronto,ON,M6G 1L1
511,3D-FJxp8bsBzm3zJVqs92g,OverEasy Restaurant,43.66869,-79.39585,598.5877803609557,$$,2,155,3.0,Breakfast & Brunch,208 Bloor Street W,Toronto,ON,M5S 3B4
512,Zyq9I7MkxfaRLiKeAm0KOw,ZenQ,43.655101876129,-79.3861730396748,1189.156910455862,NO $,0,20,3.0,Taiwanese,171 Dundas St W,Toronto,ON,M5G 1C7
513,lfkYryDWwYZXDKGZoBltsg,Toronto Big Bowl,43.65571,-79.39367,843.987938392187,NO $,0,4,3.0,Chinese,45 Baldwin St,Toronto,ON,M5T 1L1
514,jqp--3Unhkr0a5_ofPWLEw,Maker Pizza,43.6500907843714,-79.397982352197,1477.5757082149269,$$,2,175,4.0,Pizza,59 Cameron Street,Toronto,ON,M5T 2H1
515,tGBeFfwXCUZOsb0YWiMWIA,Ka Chi Korean Restaurant,43.65447,-79.39933,1030.4143176199696,$,1,126,3.5,Korean,8 Saint Andrew Street,Toronto,ON,M5T 1K6
516,8MXjK1lhVRhU3yGCUv9qsA,Mean Bao,43.6543,-79.39041,1097.203205716703,$,1,94,3.5,Dim Sum,275 Dundas Street W,Toronto,ON,M5T 3K1
517,Pkb75Ma72lVTiLQoqHQkqQ,Socialite Restaurant & Bar,43.65677,-79.40321,937.8114609195899,$$,2,15,3.5,Cocktail Bars,276 Augusta Avenue,Toronto,ON,M5T 2L9
518,VxrvGKfba7rBDNLjc-Wy3A,Ethiopian House Restaurant,43.66673,-79.3856,882.2105011444429,$$,2,156,3.5,Ethiopian,4 Irwin Avenue,Toronto,ON,M4Y 1K9
519,OMhJbPB9LNAdQu1bwuiEIQ,Coach House Restaurant,43.66505,-79.38482,887.7903136892551,$,1,94,3.5,Diners,574 Yonge Street,Toronto,ON,M4Y 1Z3
520,olllmpQVBHwOQmarQro2fw,Over Easy Restaurant,43.6480441867393,-79.377672200254,2230.06670793964,$$,2,128,4.0,Breakfast & Brunch,56 Yonge Street,Toronto,ON,M5E 1G5
521,ND4HKwyHKm56DoIgi1ItRw,Tokyo Smoke,43.6467528323782,-79.4072012230754,2057.008343300614,NO $,0,9,4.0,Cafes,668 Queen Street W,Toronto,ON,M6J 1E5
522,5RcSvs83ksJzQUHvMDMMmw,Diyijia,43.66345,-79.38416,931.158401307834,$$,2,40,3.5,Chicken Shop,512 Yonge Street,Toronto,ON,M4Y 1X9
523,fLU0yUTZ3bArJaWroR9ZaQ,The Eggman,43.6572685,-79.3843765,1128.8908582392448,$,1,9,4.5,Food Trucks,Bay and Elm,Toronto,ON,M5G
524,mFBZcwkHuys0pbyBGOhKoQ,Flock Rotisserie + Greens,43.647493,-79.392508,1773.7637307846153,$$,2,111,4.0,Salad,330 Adelaide Street W,Toronto,ON,M5V 1R4
525,tM_A6uLiKvUCKSdSZxYLYw,Pizza Gigi,43.6616799,-79.40821,1032.4168228476071,$,1,67,3.0,Pizza,189 Harbord Street,Toronto,ON,M5S 1H5
526,oY0f4_iIrWPmQmvdlPNmgw,Cafe 059,43.6582934588708,-79.3998373667953,646.1705780495661,NO $,0,2,5.0,Cafes,1 Spadina Cres,Toronto,ON,M5T 1R8
527,wK1SMAzIpHh-KYbrs7m0nA,California Sandwiches,43.65253,-79.41239,1798.52114243557,$,1,133,4.5,Sandwiches,244 Claremont Street,Toronto,ON,M6J 2N2
528,cefRDEK5O3t_iUuwnmL27Q,Smith,43.6669924,-79.3813287,1227.9373482543022,$$,2,199,3.5,Breakfast & Brunch,553 Church Street,Toronto,ON,M4Y 2E2
529,JOoblYsQjFT-47tkt6om0A,7 West Cafe,43.6685661933329,-79.3865257501602,943.9511675932159,$$,2,367,3.5,Italian,7 Charles Street W,Toronto,ON,M4Y 1R4
530,bK7dxnD1FYuV4mVVVCMeNA,Hey Noodles,43.6532661,-79.396979,1117.8012359366357,$$,2,71,3.5,Chinese,478 Dundas Street W,Toronto,ON,M5T 1H1
531,6eRSdODyj9GS0w6zlhrWkg,Adega Restaurante,43.65732,-79.38323,1202.931751572609,$$$,3,136,4.0,Portuguese,33 Elm St,Toronto,ON,M5G 1H1
532,ukcwpK5MSuZgrCmQRz6Qmw,Ryukyu Shinmen Tondou Ramen,43.655289,-79.414147,1729.1456298123737,$$,2,39,4.0,Ramen,596 College Street,Toronto,ON,M6G 1B4
533,QWbRrFpE-xXAToUbO83Djg,Duff's Famous Wings,43.6557699,-79.4122,1570.6245088724518,$$,2,112,3.5,Chicken Wings,558 College Street,Toronto,ON,M6G 1B1
534,qhUSOEBEmHobLLwIBAW5Ng,Don Alfonso 1890,43.65052,-79.37594,2125.4116896006726,NO $,0,23,4.0,Italian,19 Toronto Street,Toronto,ON,M5C 2R1
535,ZS3l1Q7InA5h4R8nMcFRwg,Noce Restaurant,43.64552,-79.41132,2337.732749706248,$$$,3,61,4.0,Italian,875 Queen Street W,Toronto,ON,M6J 1G5
536,OGVyVfc39fnp8neHRoSYhQ,PI CO.,43.6487058742949,-79.385837487883,1804.1615833167423,NO $,0,25,4.0,Pizza,170 University Ave,Toronto,ON,M5H 3B3
537,3BJhHBe9xEKe8jaIDd8SWg,Tibet Cafe,43.6539,-79.40006,1100.6909070073953,$,1,38,4.0,Himalayan/Nepalese,51 Kensington Avenue,Toronto,ON,M5T 2J8
538,AoItX6upESFG_EowRa05eg,Ave Maria Latin Café,43.6643105,-79.4143295,1507.8481658040532,$,1,29,4.5,Coffee & Tea,631 Bloor Street W,Toronto,ON,M6G 1K8
539,OfDlRD8S27kYocY1HT-fFw,Kung Fu Duck,43.6570702,-79.3993378,750.2446958003344,$$,2,2,4.0,Delicatessen,419 Spadina Avenue,Toronto,ON,M5T 2G6
540,nAnpTnodDchSl9H0f6R2pw,Bhoj Indian Cuisine,43.67277,-79.389,1184.0567521207056,$$,2,53,4.0,Indian,21 Davenport Road,Toronto,ON,M5R 1H2
541,ljmq2IIipLiPgXThcwDgmA,MARBL Restaurant,43.64499,-79.39598,2032.263472839315,NO $,0,8,3.5,American (Traditional),455 King Street West,Toronto,ON,M5V 1K4
542,6Li3eGHOHaqfR9E8oaI1yg,Mr Jerk,43.66721,-79.3732,1862.4260554812436,$,1,76,4.0,Caribbean,209 Wellesley Street E,Toronto,ON,M4X 1G1
543,ucgzkl7atsBMGu4gGpmHfw,Peter Pan Bistro,43.64915,-79.3933799,1579.8891452285698,$$,2,152,3.5,Canadian (New),373 Queen Street W,Toronto,ON,M5V 2A4
544,CsS9WsonGYyE3vINi5bxSg,Barrio Coreano,43.6645245,-79.4150668,1563.6658562550463,$$,2,224,3.5,Korean,642 Bloor Street W,Toronto,ON,M6G 1K9
545,uHGXcZ7Tydcg3HZ74S7Efg,Stratus,43.64663,-79.38114,2188.750034193383,$$$,3,39,4.0,Canadian (New),79 Wellington Street W,Toronto,ON,M5K 1J5
546,T5Y4Mo5fgmU77KrbdRffcw,One Love Vegetarian,43.66669,-79.41199,1372.3325060622637,$$,2,76,4.5,Caribbean,854 Bathurst Street,Toronto,ON,M5R 3G2
547,aT9jGDqTCvVjGjbYC969Rg,Sushi & BBbop,43.65931,-79.38256,1125.3267942595191,$$,2,81,4.5,Sushi Bars,Food Court At Aura,Toronto,ON,M5B 1S8
548,Kxop0nGA-BUrwYD4EGhyPA,Chinese Traditional Buns,43.65295,-79.39909,1180.443861635315,$,1,81,3.5,Chinese,536 Dundas Street W,Toronto,ON,M5T 1H4
549,Jt3ran3c4RrA3ExshaClAw,Ko'ox Hana,43.65473,-79.40231,1080.3135111789043,$$,2,3,5.0,Mexican,214 Augusta Avenue,Toronto,ON,M5T 2L8
550,YXjD1_p0mvZkdI8S_RKdnA,Poke Wrap,43.65808,-79.38191,1248.0145919962313,$$,2,81,4.0,Hawaiian,354 Yonge Street,Toronto,ON,M5B 1S5
551,FZdFVRrC0BUXNZQUypFUaA,Casamiento,43.65473,-79.40231,1080.3135111789043,NO $,0,3,5.0,Salvadoran,214 Augusta Avenue,Toronto,ON,M5T 2L8
552,WzleXDgNBtwNo80gn7CgEg,Mustachio Italian Eatery,43.65621,-79.38326,1269.978511029239,$,1,8,4.5,Pizza,595 Bay St.,Toronto,ON,M5G 1M6
553,F6DRP5pYYYgDOKeVzWFsBw,Bun Saigon Vietnamese Restaurant,43.65164,-79.39783,1304.8411382954675,$,1,86,3.5,Vietnamese,252 Spadina Avenue,Toronto,ON,M5T 2C2
554,84RdNjDKXKzqZlSlT6G6PA,Film Cafe by Eative,43.65506,-79.40246,1061.1265664536622,$,1,117,4.0,Breakfast & Brunch,230 Augusta Avenue,Toronto,ON,M5T 2L6
555,83xQtNti1lQgqWTERfeqcw,Bua Thai Restaurant,43.67481,-79.3969,1290.0056641496592,$$,2,41,4.0,Thai,150 Avenue Rd,Toronto,ON,M5R 2H8
556,G2Z-4U6cDsDQvT6v3FzYmA,Ricarda's,43.6484621,-79.3936807,1655.2920248491198,$$$,3,153,4.0,Mediterranean,134 Peter Street,Toronto,ON,M5V 2H2
557,VtVqCy22D43vtN4WRDD93Q,Mysteriously Yours Dinner Theatre,43.6583645,-79.3830719,1153.6591555421828,$$$$,4,39,3.5,Dinner Theater,33 Gerrard Street W,Toronto,ON,M5G 1Z4
558,vcdgxeTfjFW9SXJmuUVOOg,Beer Batter Fish' N Chips,43.6638048387209,-79.3705035746098,2027.9717679909745,$$,2,17,4.5,Fish & Chips,200 Carlton Street,Toronto,ON,M5A 3A3
559,t41_VSBs7akY2POWNtzqxw,Gyugyuya,43.65497,-79.38638,1178.8458415789153,$$,2,196,3.5,Japanese,177 Dundas Street W,Toronto,ON,M5G 1C7
560,8XCpgcsKOe6sng7qdCMIgg,Ematei Japanese Restaurant,43.65129,-79.3892599,1426.9462547738601,$$,2,158,3.5,Japanese,30 St Patrick Street,Toronto,ON,M5T 3A3
561,uh9NhQhOs6a0w3Vhk0xyvg,The Fry,43.6654,-79.41085,1242.3253377834633,$$,2,77,3.0,Korean,524 Bloor Street W,Toronto,ON,M5S 1Y3
562,xVHzCbDWCwmyavF5PgJRmg,Not Just Noodles,43.66502,-79.38476,901.5952534398738,$,1,143,3.5,Chinese,570 Yonge Street,Toronto,ON,M4Y 1Z3
563,6L5xQca-_DnJCXEGa3dJjQ,Corvo,43.644695550198,-79.3938714407872,2071.3432074031,$$$$,4,23,4.0,Italian,9 Clarence Square,Toronto,ON,M5V 1H1
564,Z2GIrARCKaBy7Jr8Y-Sccw,Plancha,43.65037,-79.37731,2061.424841827949,NO $,0,21,4.0,Mediterranean,44 Victoria Street,Toronto,ON,M5C 1Y2
565,vQGZjrDiDBuznOkUevBNzw,Los Vietnamita Taqueria Shop,43.6531331163807,-79.3829282270142,1525.9230826605697,NO $,0,4,4.5,Mexican,,Toronto,ON,M5B
566,2PbXyP13ZAYXSJQeqW4Vcw,Loaded Pierogi,43.6647044094439,-79.3806558570915,1220.8420874233373,$$,2,12,4.0,Bars,524 Church Street,Toronto,ON,M4Y 1C5
567,4YdRr-g57XM5rGMqoP2T9w,Hot Bunzz Street Cuizine,43.64911,-79.39686,1576.8669701250192,$,1,15,4.0,Street Vendors,170 Spadina Ave,Toronto,ON,M5T 2C2
568,gAxeeJKwJtxp3uH9zUQ2aQ,A-Game Cafe,43.6517185,-79.4079115,1617.425439010631,$,1,88,4.5,Cafes,797 Dundas Street W,Toronto,ON,M6J 1V2
569,8VQu2-4UOXNm0eqVpjkE_Q,Porchetta & Co,43.65154,-79.40895,1686.6899890606924,$$,2,218,4.0,Sandwiches,825 Dundas Street W,Toronto,ON,M6J
570,KynXf-SiyaxrnJ4w9bhfUw,Spice And Aroma,43.6564695861688,-79.399160808868,806.3362024877831,$$,2,13,3.5,Chinese,387 Spadina Avenue,Toronto,ON,M5T 2G6
571,dp9haMgS5RZ6i1kQq_oS5A,Fran's Restaurant,43.6614505,-79.384068,957.7938955921096,$$,2,326,3.5,Diners,20 College Street,Toronto,ON,M5G 1K2
572,s-9ZfWtECJLMnND12t6RMA,Hotmess Tex Mex,43.65491,-79.4145999,1782.2481741101412,$$,2,19,3.5,Tex-Mex,615 College Street W,Toronto,ON,M6G 1B5
573,wtftZecNakP5WKwi-k0cYg,Kiro Sushi,43.6722662302551,-79.3874411896101,1200.4109481793867,$$,2,55,4.0,Japanese,4 Collier Street,Toronto,ON,M4W 2G8
574,_cVCzKQGt23KKW1M07Yvkw,Jules Bistro,43.64502,-79.41592,2610.7373455928187,$$$,3,39,4.0,French,924 Queen Street W,Toronto,ON,M6J 1G6
575,aYGqrw1lJHs8Hw0kHC5TVA,Mare Pizzeria,43.65464,-79.40093,1054.6369538247425,$,1,42,4.0,Pizza,185 Baldwin Street,Toronto,ON,M5T 1M1
576,qy4WKXTBkqD4zX0rohYF8Q,Forget Me Not Cafe,43.64585,-79.40086,1987.4181517728057,$,1,94,4.0,Coffee & Tea,506 Adelaide Street W,Toronto,ON,M5V 1T5
577,TVtnQyn3ka60r2t9xRwKPQ,Los Guaca-Moles,43.6645463784929,-79.4153123667649,1583.556719906024,$$,2,38,4.0,Mexican,690 Euclid Avenue,Toronto,ON,M6G 2T9
578,nQlEAP941EKh3MNlG0bzwg,120 Diner,43.6521199,-79.37554,2044.0631791929611,$$,2,23,4.0,Comedy Clubs,120 Church Street,Toronto,ON,M5C 2G8
579,SXnXItivyE3i3FQbydak-A,Harbord Fish & Chips,43.66207,-79.40639,878.8826102492574,$$,2,55,3.5,Seafood,147 Harbord Street,Toronto,ON,M5S 1H1
580,594po76eaw-ybh0t4YnZ0w,Dundas Shawarma,43.65222,-79.40714,1538.6746393522283,$,1,16,4.0,Middle Eastern,768 Dundas Street W,Toronto,ON,M6J 1T8
581,j_hB9Gt3VMJAbA2JyvyFjw,Wish,43.66861,-79.3855899,994.9458569643302,$$,2,267,3.0,Lounges,3 Charles Street E,Toronto,ON,M4Y 1R9
582,LBHbyID7tcaGszznHtnCrw,JOEY Eaton Centre,43.6558708964233,-79.382009190213,1375.4240810533668,$$,2,430,3.5,Canadian (New),1 Dundas St W,Toronto,ON,M5G 1Z3
583,_MOZSg1ajEvkubHXM3aDFg,Il Covo,43.655165915912,-79.4133123010397,1679.2003836078457,$$$,3,39,4.0,Italian,585 College Street,Toronto,ON,M6G 1B2
584,zuCgnSkJa3aFB5s1-8ew4g,Fiesta Burrito,43.65413,-79.39104,1130.7886746336826,$$,2,21,4.0,Mexican,109 McCaul Street,Toronto,ON,M5T 3K5
585,PGRVqqPqR2hIZNRLqlPxag,Good Hombres,43.65326,-79.40675,1418.0267966546246,NO $,0,27,4.5,Mexican,374 Bathurst Street,Toronto,ON,M5T 2S6
586,6Y01DAOBtDo9BwXGW4dR7g,Luscious Desserts,43.6529,-79.39748,1164.9873321932016,$$,2,38,3.5,Desserts,493A Dundas Street W,Toronto,ON,M5T 1H1
587,CY3N_T_35gqOXkwQbSeSTA,Hong Fatt B-B-Q,43.6532,-79.39585,1119.8372334710791,$,1,37,3.5,Barbeque,443 Dundas Street W,Toronto,ON,M5T 1G6
588,l5VG7_TWg4JGljx3UJStVw,Hana Korea Restaurant,43.65571,-79.39367,843.987938392187,$,1,33,3.0,Korean,45 Baldwin St,Toronto,ON,M5T 1L1
589,9i7Gz3xaa-gwh1Fi3q1_kA,BlueBlood Steakhouse,43.6781099,-79.40948,1978.6642089205227,$$$$,4,78,3.5,Steakhouses,1 Austin Terrace,Toronto,ON,M5R 1X8
590,Sr-_q9OcQCmbkjMxZhHgjw,Prenup Pub,43.65868,-79.3947601,515.3287327646062,$$,2,55,3.5,Gastropubs,191 College Street,Toronto,ON,M5T 1P9
591,_Gl7RqOkCUQr8kjN8yGf6w,Burrito Gordito,43.6480711540674,-79.3934180215001,1700.7133539198783,$,1,37,4.0,Mexican,120 Peter Street,Toronto,ON,M5V 2G7
592,2Q89PhkcyT9uZnQORmqMKg,House of Gourmet,43.65336,-79.39718,1124.5481879867232,$$,2,356,3.5,Chinese,484 Dundas St W,Toronto,ON,M5T 1G9
593,Orgm9nmcClxnAUva4nOKyA,Hothouse,43.64884749595,-79.373683180012,2390.1097472303927,$$,2,314,3.5,Italian,35 Church Street,Toronto,ON,M5E 1T3
594,GcxE5hK_TaHP4EZFDYz2mg,Copacabana Brazilian Steakhouse,43.6483440823441,-79.3878309801221,1777.102484343036,$$$,3,280,3.5,Brazilian,230 Adelaide Street W,Toronto,ON,M5H 1W7
595,oICXzFAaUMrYGzjRWmkw4Q,Anh Dao,43.65634,-79.39896,814.0524599086746,$$,2,99,3.5,Vietnamese,383 Spadina Avenue,Toronto,ON,M5T 2G6
596,oAq3-dXyDT3k4Mluc1ftTA,Yamato Japanese Restaurant,43.670701023097,-79.391142608675,903.4476000994116,$$$,3,160,3.5,Japanese,24 Bellair Street,Toronto,ON,M4W 1A7
597,Io1WmI1cUc8QaUVxSx1KuA,Perola Supermarket,43.65493,-79.40192,1054.4993365973774,$$,2,14,4.0,Grocery,247 Augusta Ave,Toronto,ON,M5T 2L8
598,n-zs5Cxn8MeSVPtodzvqIg,Salmon Lovers,43.6544414,-79.3908854,1056.1188310154116,$$,2,37,4.0,Japanese,294 Dundas Street W,Toronto,ON,M5T 1G2
599,jfK5RhtgZ9-lulCzMwpZbA,Shisha&Co,43.66643,-79.38535,895.9391157148657,NO $,0,14,3.5,Hookah Bars,636 Yonge Street,Toronto,ON,M4Y 1Z8
600,4P_HNoH4cjoCdPHPb2LTXA,Nord Bistro,43.6739000396702,-79.4114698306885,1733.0450401852274,NO $,0,14,4.5,Bistros,406 Dupont Street,Toronto,ON,M5R 1V9
601,nu-DHeDtxnOW5vYj93dGPQ,The Lakeview,43.64958,-79.42034,2501.6364096653406,$$,2,392,3.5,Diners,1132 Dundas Street W,Toronto,ON,M6J 1X2
602,yqgWE0Ux-vcCHMrp6J2OFQ,FET ZUN,43.67524,-79.40636,1578.8046762201575,NO $,0,6,4.5,Middle Eastern,252 Dupont St,Toronto,ON,M5R 1V7
603,JYCL0ThG7Xw5KDfyVDgb7A,Papa Spicy,43.65509,-79.39856,938.3737675002163,$$,2,25,3.5,Chinese,339 Spadina Avenue,Toronto,ON,M5T 2G3
604,c35qzLN6ItDpVIoj2uQW4Q,Ravi Soups,43.6477,-79.39201,1769.603827552319,$$,2,339,4.5,Sandwiches,322 Adelaide Street W,Toronto,ON,M5V 1R1
605,Lfl9kppQhikig4xI3UdjOA,Ritz Caribbean Foods,43.6616956821731,-79.3834200753873,1003.6560196024492,$,1,160,3.5,Caribbean,450 Yonge Street,Toronto,ON,M4Y 1W9
606,TFftsYkRIUtdo6ZhRwJ2lQ,Terroni,43.6464,-79.40917,2175.7626637768776,$$,2,331,3.5,Italian,720 Queen Street W,Toronto,ON,M6J 1E8
607,dizdLoOk0GMaSS_qQAuklQ,The Fifth & Terrace,43.6493079440937,-79.3893122699059,1636.124729720517,$$$$,4,52,4.0,Venues & Event Spaces,225 Richmond Street W,Toronto,ON,M5V 1W2
608,OOO4iaFaBffyeZjiffJccA,Lim Ga Ne,43.66411,-79.41674,1695.6563401154413,$$,2,75,3.5,Korean,680 Bloor Street W,Toronto,ON,M6G 2T9
609,pdxD8dFqMImWmeBMU42wmg,Sorrel,43.6802406,-79.3911819,1920.1868350193024,$$$,3,20,3.5,Mediterranean,1158 Yonge Street,Toronto,ON,M4W 2L9
610,KIs5vcQLVExjxtEOBNkXdA,The Boil Bar,43.66708,-79.38565,908.8173378237241,$$,2,50,3.5,Seafood,664 Yonge Street,Toronto,ON,M4Y 2A6
611,YFamMJYgBmsFKj6x6xR_jg,The Alternative Cafe,43.6478273370915,-79.3970403447747,1721.20910839431,$$,2,27,4.5,Cafes,439 Richmond Street W,Toronto,ON,M5V 1X9
612,7T1XVTSocHcOu2H5v2Iqog,Smoke's Weinerie,43.65831,-79.39981,643.7201845836518,$,1,11,2.0,Poutineries,457 Spadina Avenue,Toronto,ON,M5S 2G7
613,PM5vkmr8FqOIWE0pe3C2Fw,Morals Village Hot Pot Downtown,43.65375,-79.39568,1081.3239796473486,$$$,3,115,3.5,Hot Pot,436 Dundas Street W,Toronto,ON,M5T 1G7
614,XT25YpQoNDuzAZHur-HZ8g,Pizzeria Libretto,43.64859,-79.38469,1853.7425820708422,$$,2,277,3.5,Pizza,155 University Avenue,Toronto,ON,M5H 3B7
615,ZLAADbW3nAOFuklVk5x7gw,Flock Rotisserie + Greens,43.6593533,-79.3894224,667.5663196584942,$$,2,12,3.5,Salad,661 University Avenue,Toronto,ON,M5G 1M1
616,0PlOgLqjGxnTC484RjHpIg,Think It Pensa Italiano,43.6619200689594,-79.4072854910697,943.7252257870518,NO $,0,2,4.0,Coffee & Tea,196 Borden Street,Toronto,ON,M5S 2N3
617,ojPrFPeJqqOKdA6O69HeiQ,Archive,43.65084,-79.41243,1928.752034400286,$$,2,35,4.5,Wine Bars,909 Dundas Street W,Toronto,ON,M6J 1V9
618,cfGNZTCw1pCR_fma6wgfwg,Ginger,43.6653417586184,-79.3809837338158,1206.1576492704953,$,1,122,3.5,Vietnamese,546 Church Street,Toronto,ON,M4Y 2E1
619,Yqu3km0WcFRdUdrKan-LZA,Valens Restaurant,43.65599,-79.39285,840.538157704924,$$,2,74,3.5,Italian,19 Baldwin Street,Toronto,ON,M5T 1L1
620,HkPnai4LMRjAYZkZ2AQLkA,Page One,43.657853,-79.376254,1676.8308831174918,$$,2,74,4.0,Cafes,106 Mutual Street,Toronto,ON,M5B 2R7
621,7T3WU-Up01pgCeygbc_K-A,Dagu Rice Noodle-Downtown,43.65539,-79.38425,1276.2511243659544,$$,2,145,3.0,Chinese,115 Dundas Street W,Toronto,ON,M5G 1C4
622,eSp5ge9VAwTywZKlJ_LBvA,Madison Avenue Pub & Restaurant,43.66787,-79.40333,796.2589627396178,$$,2,153,2.5,American (Traditional),14 Madison Avenue,Toronto,ON,M5R 2S1
623,CM7IDKFxV6p5FdptjXsr8A,Kellys Landing,43.6448899,-79.38305,2285.1453757278723,$$,2,112,3.5,Sports Bars,123 Front Street W,Toronto,ON,M5J 2M2
624,7HUEqrj4aa_u3kl-o-e9_Q,Tortería San Cosme,43.65466,-79.40046,1030.1157051844002,$$,2,92,3.5,Mexican,181 Baldwin Street,Toronto,ON,M5T 1L9
625,Fw0u5YqMSLXhmNevrCPBMg,Annona Resturant,43.669154,-79.394715,658.3906587595037,$$$,3,69,3.5,Canadian (New),Park Hyatt Hotel,Toronto,ON,M5R 2E8
626,N7XXcXJgHT5JEbTHCst8Zw,Hana Sushi & Cafe,43.66172,-79.38439,921.287283932576,$$,2,54,2.5,Sushi Bars,21 Grenville Street,Toronto,ON,M4Y 1A1
627,pYZgXNDq442OrcO1JvsnEQ,Simmer Huang,43.65732,-79.40028,758.3766329154505,NO $,0,10,3.0,Chinese,456 Spadina Avenue,Toronto,ON,M5T 2G8
628,4RggTW3skfGuUt0MOY_zHw,Ginger,43.6691214,-79.3861799,1004.6524558727635,$,1,204,3.0,Vietnamese,695 Yonge Street,Toronto,ON,M4Y 2B2
629,BLDArCmdbbCnUcfLrxnrlQ,Burrito Bandidos,43.6662883959894,-79.4054889678955,855.3541988951235,$,1,86,3.5,Tex-Mex,2 Walmer Road,Toronto,ON,M5R 2W3
630,294xF_hpNQH0gpmjOVfHEA,Chopstick On Bloor,43.66501,-79.41068,1226.7783444164245,NO $,0,11,3.5,Hakka,561 Bloor Street W,Toronto,ON,M5S 1Y6
631,g14SuHGkIL-2pSWhRkSSlQ,Colaba Junction,43.66113,-79.38556,839.2447209701279,$$,2,57,3.5,Indian,801 Bay Street,Toronto,ON,M5S 1Y9
632,3utUsvqVVbTuz8AdSxXOyQ,Slanted Door,43.66585,-79.40892,1091.3139151258026,$$,2,8,4.0,Cafes,442 Bloor Street W,Toronto,ON,M5S 1X8
633,-Tpo5r3kF_z4iilx8JXhvA,Basil Box,43.6579,-79.38116,1306.2184414735204,$$,2,168,4.0,Vietnamese,351 Yonge Street,Toronto,ON,M5B 1S1
634,5DDvJhkk3zsd9jBxDQpkow,Buna's Kitchen,43.64823,-79.39494,1681.0906552641286,$$,2,45,4.5,Sandwiches,388 Richmond Street W,Toronto,ON,M5V 3P1
635,hWaptsAiWkxqCX9SFfJDkg,BIWON,43.6530643,-79.3968594,1146.180590782416,$,1,73,3.0,Korean,471 Dundas Street W,Toronto,ON,M5T 1G6
636,Kal1hFMTEzdXYpa5MNzUPw,SPIN Toronto,43.6447886395145,-79.3963426351547,2056.3784337513375,$$,2,127,4.0,Cocktail Bars,461 King St W,Toronto,ON,M5V 1K4
637,oXmFOThxSSRLYb2n75JliQ,Koha Pacific Kitchen,43.64823,-79.37952,2129.249067759459,NO $,0,16,4.0,Poke,199 Bay Street,Toronto,ON,M5L 1G5
638,sPGbBt01zybTxV2FRdRaDQ,Sichuan Garden Restaurant,43.6556277435023,-79.3987780563446,885.7013202343634,$$,2,59,3.5,Chinese,359 Spadina Avenue,Toronto,ON,M5T 2G3
639,iRLi-TK7K_-mcLwFwO8pPA,Green Tea Restaurant Downtown Toronto,43.65235,-79.39731,1222.3613120635237,NO $,0,13,3.0,Chinese,261 Spadina Avenue,Toronto,ON,M5T 2E3
640,PUMfgD7xMYIIfbeUDQfuXQ,Away Kitchen and Cafe,43.6476356,-79.4025341,1823.9015614837547,NO $,0,11,4.5,Vegan,536 Queen Street W,Toronto,ON,M5V 2B5
641,5V6u8hbA5zByb5k8I68z2A,The SAJ Pizza & Wrap,43.6586113,-79.3950882,494.9064493613297,$,1,17,3.0,Halal,199 College Street,Toronto,ON,M5T 1P9
642,CB8_BQHSOkQiTCl5em9Xvw,Loaded Pierogi,43.6458497542096,-79.4100153105222,2253.9837561194804,$$,2,58,4.0,Comfort Food,839 Queen Street W,Toronto,ON,M6J 1G4
643,vh1tPEaPioD78QmoqnWXpw,Sukho Thai,43.6485607,-79.3745641,2360.065175741588,$$,2,439,3.5,Thai,52 Wellington Street E,Toronto,ON,M5E 1C9
644,3G4KcScA5srgsg-fAtWs2Q,Tokyo Grill,43.66519,-79.38488,892.9960723828476,$$,2,86,3.5,Japanese,582 Yonge Street,Toronto,ON,M4Y 1Z3
645,FJMMPL3pxAPYGEPB0Hwlhw,TOCA,43.6454311772613,-79.3870585889549,2102.66656049388,$$$$,4,125,4.0,Italian,181 Wellington Street West,Toronto,ON,M5V 3G7
646,87I8ba2FKYKeXyAhiC6cLg,Pokito,43.64864,-79.398,1651.0274223856948,$$,2,131,3.5,Hawaiian,420 Queen Street W,Toronto,ON,M5V 2A7
647,TgcjQfl1E9DE-SjDVOUDJQ,Rose and Sons,43.675786,-79.403665,1531.2985768306805,$$,2,207,3.5,Breakfast & Brunch,176 Dupont St,Toronto,ON,M6G 3G8
648,bSLIrhdxrxuz3p_nz1iLpg,The One Eighty,43.668736,-79.388207,855.6984001484547,$$$,3,106,3.0,Lounges,55 Bloor Street W,Toronto,ON,M4W 1A5
649,wTb3qNQDXyhHLTAg5eQxmA,True Love Cafe,43.6584999,-79.3712199,2035.416662751207,$,1,8,4.0,Coffee & Tea,290 Dundas Street E,Toronto,ON,M5A 1Z9
650,mkceCArNe87jwSdLfsslXg,Bosk,43.6494602854375,-79.3861877918243,1716.4683195442663,$$$,3,139,4.0,Canadian (New),Shangri-La Hotel,Toronto,ON,M5H 0A3
651,Jm_R0IhwFlfCAV3Fk6NTWg,Shanghai Shikumen Fine Cuisine,43.6527951870382,-79.3990259735631,1195.6927165020136,NO $,0,10,3.5,Dim Sum,530 Dundas Street W,Toronto,ON,M5T 1H4
652,Jjg1NoiiAhPB82X-96QWMA,Union Chicken,43.64552,-79.38031,2345.775573988865,$$,2,70,3.0,Chicken Shop,65 Front Street W,Toronto,ON,M5J 1E6
653,RWFC8Ht9gWcRc2vX57OPsA,Papa CEO King Slice,43.66327,-79.40255,553.683024075194,$,1,54,3.5,Pizza,654 Spadina Avenue,Toronto,ON,M5S 2H7
654,rxA9c0_XObabVL1WCTA4FA,Sneaky Dee's,43.6562399,-79.4074,1222.4990821379322,$$,2,431,3.5,Tex-Mex,431 College Street,Toronto,ON,M5T 1T1
655,0JqPI6mv7xHloURlf0L4Mg,Thai On Yonge,43.65855,-79.38205,1216.0436018364696,$$,2,109,3.5,Thai,370 Yonge Street,Toronto,ON,M5B 1S5
656,bDut3KRQJ0qLElfaJNQFgg,Famoso Neapolitan,43.66626,-79.40688,959.7882100778174,$$,2,143,3.5,Pizza,386 Bloor Street W,Toronto,ON,M5S 1X9
657,piZ4JqJI5WTljJuQV7yZHQ,KINTON RAMEN,43.656008175771,-79.393558162555,826.4168677954832,$$,2,435,3.5,Ramen,51 Baldwin Street,Toronto,ON,M5T 1L1
658,6SCfq4rW_-DBBhn1PDI9Ag,Wild Fire Grill,43.6626892,-79.4031372,604.6653430983838,NO $,0,2,4.0,Greek,81 Harbord Street,Toronto,ON,M5S
659,4u1iOihWOVkgNTId927fHg,El local loco,43.6478315,-79.3732265,2493.888247003107,$$,2,170,3.5,Mexican,9 Church St,Toronto,ON,M5E 1M2
660,A19Qrn0IqYhmTvIAUhk2_A,Pho Blooming Rose,43.6746046542196,-79.3883717805147,1390.8769106421137,NO $,0,12,3.5,Vietnamese,895 Yonge Street,Toronto,ON,M4W 2H2
661,XsjuwpDUkigW8ymAc2Jggg,European Delight,43.64914,-79.37157,2491.597944016811,$,1,43,4.5,Delis,St. Lawrence Market,Toronto,ON,M5E 1C3
662,c-N5b3LFflVwPwqwijVwSw,Palm Lane,43.6712,-79.39436,921.585876355385,NO $,0,5,4.0,Salad,55 Avenue Road,Toronto,ON,M5R 3L2
663,bRntmjztJ4dFDA_LYiEECw,Snakes & Lattes Annex,43.665,-79.4132,1415.9819654379971,$$,2,328,4.0,Bars,600 Bloor Street W,Toronto,ON,M6G 1K4
664,6ueacQ4py4qK5Gp9BFGvnw,Mr Tasty Fries,43.6519,-79.38385,1528.3993098871604,$,1,22,4.0,Fast Food,110 Queen St W,Toronto,ON,M5H
665,LHwzyN5cllTfLuZ8v2k_Bg,Le Paradis Brasserie Bistro,43.67506,-79.40025,1355.2761355664775,$$,2,85,3.5,French,166 Bedford Road,Toronto,ON,M5R 2K9
666,U7JrKn4fYW2RpJa7Nl-X_g,The Carlton Restaurant,43.6617125,-79.3811043,1187.2320914142203,NO $,0,4,4.5,Canadian (New),Holiday Inn,Toronto,ON,M5B 2E9
667,IXZDJEk9ymsEMDGj0-A5rA,Agora,43.6452833329725,-79.4126565009356,2421.3542752097533,NO $,0,5,4.5,Greek,921 Queen St W,Toronto,ON,M6J 1G5
668,uF86ZhygpBEGr3CudNemYA,O.Noir,43.66905,-79.3826799,1227.1064275793003,$$$,3,316,3.5,Canadian (New),620 Church St,Toronto,ON,M4Y 2G2
669,ejKXczjEkm1gzyRdblQm8w,Fresh on Spadina,43.64808,-79.39556,1683.395221156322,$$,2,358,4.0,Vegetarian,147 Spadina Avenue,Toronto,ON,M5V 2L7
670,C_VoO9M9Kuhn6EObmpvWow,Slab Burgers,43.668181957604,-79.388423286824,800.3357556243872,$$,2,77,3.5,Burgers,47 Charles Street W,Toronto,ON,M4Y 2R4
671,PGJd7yyMitAgYRRYvxxEHA,Venezia Bakery,43.6467514,-79.4199524,2679.903236866916,$,1,83,4.0,Bakeries,114 Ossington Avenue,Toronto,ON,M6J 2Z4
672,y166Ve7c7y2EnnePytr71Q,1915 Lan Zhou Ramen,43.654996394994,-79.3867961531425,1166.7047628884923,$,1,91,3.5,Chinese,185 Dundas Street W,Toronto,ON,M5G 1C7
673,v0a2G9zBDM3hVprzSy39Kw,Owl of Minerva,43.66398,-79.4175099,1758.872129541961,$$,2,97,3.5,Korean,700 Bloor St W,Toronto,ON,M6G
674,dm2qhNgxjKGE9GvcfSPD2Q,Hendriks Restaurant & Bar,43.653501,-79.380048,1663.6700443317618,$$$,3,52,4.0,American (Traditional),218 Yonge Street,Toronto,ON,M5B 2H6
675,Nxg73OigmRQQq0d1pKtkUQ,Xe Lua Restaurant,43.65169,-79.39796,1300.2442524865544,$,1,166,3.0,Vietnamese,254 Spadina Avenue,Toronto,ON,M5T 2C2
676,R1YBPobZ-EtNeY8-goCMaQ,The Owl,43.65252,-79.39854,1202.6201504306975,$,1,68,3.5,Korean,280 Spadina Avenue,Toronto,ON,M5T 3A5
677,MWvfffAggIKAV8pBfi-Gyw,Hua Sang Seafood Restaurant,43.6557848,-79.3937013,848.4611432995098,$$,2,57,3.5,Seafood,43 Baldwin Street,Toronto,ON,M5T 1Y9
678,5FWxrmh4QWTVpBIZldvYLQ,Chu Resto,43.6677096042172,-79.3855246156454,955.7525833861403,NO $,0,9,2.5,Chinese,639 Yonge Street,Toronto,ON,M4Y 1Z9
679,p1XLB4zo6sI09Pb4-IA23Q,Cora Pizza,43.66332,-79.40257,555.8177540170483,$,1,49,3.5,Pizza,656A Spadina Ave,Toronto,ON,M5S 2H7
680,yKFx0bW9_buGt9NASTpUaw,Smoke's Poutinerie,43.65707,-79.3735,1905.7673133866108,$,1,154,3.5,Fast Food,203 Dundas Street E,Toronto,ON,M5A 1Z4
681,aYZq1sV8iQeHZfj_MB2Twg,Ali Baba,43.6580366,-79.3814547962959,1285.8437006008571,$,1,35,4.0,Middle Eastern,357 Yonge Street,Toronto,ON,M5B 1S1
682,o19vbA9-BuvHXrE4nYJ60A,The Rebel House,43.67763,-79.39008,1664.5642007351,$$,2,108,3.5,Pubs,1068 Yonge Street,Toronto,ON,M4W 2L4
683,bRmb81XDG3E2SOHARBLTog,Bodega Restaurant,43.6561,-79.39369,812.6180592502413,$$$,3,116,3.5,French,30 Baldwin Street,Toronto,ON,M5T 1L3
684,bDgmLfAh_TWRCHEYC8hbpQ,The Keg Steakhouse & Bar,43.6448066525519,-79.3990968746814,2071.7915993999104,$$$,3,102,4.0,Steakhouses,560 King Street W,Toronto,ON,M5V 1M3
685,NdvUzwz3jAM7Hao_UPMu6g,Popeyes Louisiana Kitchen,43.65768,-79.39955,698.7013609542034,$,1,15,2.5,Chicken Wings,267 College Street,Toronto,ON,M5T 1R6
686,n9BrA1zIwlbiP1hLAc24jg,Tosto Quickfire Pizza Pasta,43.66116,-79.3864,782.64140888195,$$,2,101,3.5,Pizza,800 Bay Street,Toronto,ON,M5S 3A9
687,7v91woy8IpLrqXsRvxj_vw,Old School,43.6519218754076,-79.4083632901311,1622.082647475396,$$,2,273,3.0,Breakfast & Brunch,800 Dundas Street W,Toronto,ON,M6J 1V1
688,cqXTuBRh5N9mGJMZFdAAvw,Bi Bim Bap,43.65539,-79.41418,1730.3853160478334,$$,2,20,4.5,Korean,598 College Street,Toronto,ON,M6G 1B4
689,swM_9CXxkvxEk3fDkjA6PQ,Bar Verde at Nordstrom,43.65459,-79.38049,1513.0242684652267,$$,2,46,4.0,Canadian (New),260 Yonge Street,Toronto,ON,M5B 2L9
690,pHYKVGRuG4YFoYewmo1SPg,Baba Geddo,43.65625,-79.38818,982.3523867529951,NO $,0,1,5.0,Egyptian,525 University Ave,Toronto,ON,M5G 2L3
691,t7DjNzX6XnnvOROtJICLNg,Quetzal,43.656524297994,-79.4069881075464,1177.9807963519181,NO $,0,21,4.0,Mexican,419 College Street,Toronto,ON,M5T 1T1
